"City","City_latitude","City_longitude","State","Airport","Airport _latitude","Airport _longitude","iata_code","Distance"
"Port Blair","11.6683","92.7378","Andaman and Nicobar Islands","Vir Savarkar International Airport","11.6412","92.7297","IXZ","3.139839322"
"Diglipur","13.2667","93","Andaman and Nicobar Islands","Vir Savarkar International Airport","11.6412","92.7297","IXZ","183.1144155"
"Rongat","12.4667","92.9333","Andaman and Nicobar Islands","Vir Savarkar International Airport","11.6412","92.7297","IXZ","94.42371876"
"Nellore","14.45","79.99","Andhra Pradesh","Kadapa Airport","14.51","78.77278","CDP","131.2188913"
"Kurnool","15.83","78.05","Andhra Pradesh","Kadapa Airport","14.51","78.77278","CDP","166.0125854"
"Cuddapah","14.47","78.82","Andhra Pradesh","Kadapa Airport","14.51","78.77278","CDP","6.75470045"
"Tirupati","13.65","79.42","Andhra Pradesh","Kadapa Airport","14.51","78.77278","CDP","118.3948271"
"Anantapur","14.68","77.599","Andhra Pradesh","Kadapa Airport","14.51","78.77278","CDP","127.7132051"
"Ongole","15.506","80.049","Andhra Pradesh","Kadapa Airport","14.51","78.77278","CDP","176.2179751"
"Kodumur","15.6833","77.7833","Andhra Pradesh","Kadapa Airport","14.51","78.77278","CDP","168.2408886"
"Nandyal","15.48","78.48","Andhra Pradesh","Kadapa Airport","14.51","78.77278","CDP","112.34977"
"Pulimaddi","15.5386","78.4613","Andhra Pradesh","Kadapa Airport","14.51","78.77278","CDP","119.1662648"
"Madanapalle","13.55","78.5","Andhra Pradesh","Kadapa Airport","14.51","78.77278","CDP","110.7288099"
"Proddatur","14.75","78.55","Andhra Pradesh","Kadapa Airport","14.51","78.77278","CDP","35.87043125"
"Chittoor","13.216","79.098","Andhra Pradesh","Kadapa Airport","14.51","78.77278","CDP","148.1075941"
"Hindupur","13.83","77.49","Andhra Pradesh","Kadapa Airport","14.51","78.77278","CDP","157.6180853"
"Guntakal","15.17","77.38","Andhra Pradesh","Kadapa Airport","14.51","78.77278","CDP","166.7240665"
"Dharmavaram","14.43","77.72","Andhra Pradesh","Kadapa Airport","14.51","78.77278","CDP","113.6987796"
"Tadpatri","14.92","78.02","Andhra Pradesh","Kadapa Airport","14.51","78.77278","CDP","92.9134262"
"Suramala","13.76","79.7","Andhra Pradesh","Kadapa Airport","14.51","78.77278","CDP","130.1954314"
"Kalluru","15.8344","78.0292","Andhra Pradesh","Kadapa Airport","14.51","78.77278","CDP","167.4968"
"Emmiganur","15.7333","77.4833","Andhra Pradesh","Kadapa Airport","14.51","78.77278","CDP","194.0658895"
"Yalamakuru","15.5103","77.5249","Andhra Pradesh","Kadapa Airport","14.51","78.77278","CDP","174.1649433"
"Rayachoti","14.0583","78.7517","Andhra Pradesh","Kadapa Airport","14.51","78.77278","CDP","50.27808701"
"Kavali","14.913","79.9929","Andhra Pradesh","Kadapa Airport","14.51","78.77278","CDP","138.6633826"
"Kadiri","14.12","78.17","Andhra Pradesh","Kadapa Airport","14.51","78.77278","CDP","78.09251798"
"Chinnachauku","14.4732","78.8451","Andhra Pradesh","Kadapa Airport","14.51","78.77278","CDP","8.795591025"
"Gudur","14.1473","79.8477","Andhra Pradesh","Kadapa Airport","14.51","78.77278","CDP","122.6288344"
"Markapur","15.73","79.26","Andhra Pradesh","Kadapa Airport","14.51","78.77278","CDP","145.3901578"
"Badvel","14.75","79.05","Andhra Pradesh","Kadapa Airport","14.51","78.77278","CDP","40.02215983"
"Pulivendla","14.4194","78.225","Andhra Pradesh","Kadapa Airport","14.51","78.77278","CDP","59.83378464"
"Pamuru","15.097","79.409","Andhra Pradesh","Kadapa Airport","14.51","78.77278","CDP","94.54287837"
"Nagari","13.3214","79.5856","Andhra Pradesh","Kadapa Airport","14.51","78.77278","CDP","158.6314589"
"Razampeta","14.1954","79.159","Andhra Pradesh","Kadapa Airport","14.51","78.77278","CDP","54.35742332"
"Dhone","15.396","77.872","Andhra Pradesh","Kadapa Airport","14.51","78.77278","CDP","138.0949564"
"Kandukur","15.2167","79.9042","Andhra Pradesh","Kadapa Airport","14.51","78.77278","CDP","144.7792195"
"Atchampeta","15.5412","78.9503","Andhra Pradesh","Kadapa Airport","14.51","78.77278","CDP","116.2382102"
"Punganuru","13.3667","78.5833","Andhra Pradesh","Kadapa Airport","14.51","78.77278","CDP","128.7632008"
"Puttur","13.45","79.55","Andhra Pradesh","Kadapa Airport","14.51","78.77278","CDP","144.6558442"
"Palmaner","13.2","78.75","Andhra Pradesh","Kadapa Airport","14.51","78.77278","CDP","145.6861122"
"Venkatagiri","13.9667","79.5833","Andhra Pradesh","Kadapa Airport","14.51","78.77278","CDP","106.2112396"
"Guntakal Junction","15.1711","77.3624","Andhra Pradesh","Kadapa Airport","14.51","78.77278","CDP","168.4777113"
"Gooty","15.121","77.634","Andhra Pradesh","Kadapa Airport","14.51","78.77278","CDP","140.0054181"
"Nandikotkur","15.867","78.267","Andhra Pradesh","Kadapa Airport","14.51","78.77278","CDP","160.3556241"
"Jammalamadugu","14.85","78.38","Andhra Pradesh","Kadapa Airport","14.51","78.77278","CDP","56.69498637"
"Nayudupet","13.9","79.9","Andhra Pradesh","Kadapa Airport","14.51","78.77278","CDP","139.1579364"
"Rapur","14.2015","79.5351","Andhra Pradesh","Kadapa Airport","14.51","78.77278","CDP","88.99601909"
"Ananipalle","13.4902","79.2895","Andhra Pradesh","Kadapa Airport","14.51","78.77278","CDP","126.3595651"
"Janakammapeta","15.0125","79.8439","Andhra Pradesh","Kadapa Airport","14.51","78.77278","CDP","128.0100737"
"Addanki","15.8167","79.9833","Andhra Pradesh","Kadapa Airport","14.51","78.77278","CDP","194.9081911"
"Alluru","15.1336","78.4975","Andhra Pradesh","Kadapa Airport","14.51","78.77278","CDP","75.39115703"
"Pileru","13.6549","78.9471","Andhra Pradesh","Kadapa Airport","14.51","78.77278","CDP","96.92370013"
"Vavveru","14.5594","79.8725","Andhra Pradesh","Kadapa Airport","14.51","78.77278","CDP","118.4969758"
"Atmakur","15.8779","78.5884","Andhra Pradesh","Kadapa Airport","14.51","78.77278","CDP","153.3849025"
"Betamcherla","15.4667","78.1667","Andhra Pradesh","Kadapa Airport","14.51","78.77278","CDP","124.7183164"
"Penumur","13.3667","79.1833","Andhra Pradesh","Kadapa Airport","14.51","78.77278","CDP","134.6274872"
"Buchireddipalem","14.538","79.875","Andhra Pradesh","Kadapa Airport","14.51","78.77278","CDP","118.6852699"
"Kanigiri","15.4","79.5167","Andhra Pradesh","Kadapa Airport","14.51","78.77278","CDP","127.2027677"
"Vempalle","14.3667","78.4667","Andhra Pradesh","Kadapa Airport","14.51","78.77278","CDP","36.60922033"
"Uravakonda","14.95","77.27","Andhra Pradesh","Kadapa Airport","14.51","78.77278","CDP","168.852502"
"Giddalur","15.3764","78.9251","Andhra Pradesh","Kadapa Airport","14.51","78.77278","CDP","97.71922027"
"Allagadda","15.1322","78.5138","Andhra Pradesh","Kadapa Airport","14.51","78.77278","CDP","74.5764064"
"Madakalavaripalli","14.7475","79.0843","Andhra Pradesh","Kadapa Airport","14.51","78.77278","CDP","42.67059369"
"Darsi","15.7667","79.6833","Andhra Pradesh","Kadapa Airport","14.51","78.77278","CDP","170.5224854"
"Erraguntla","14.6333","78.5333","Andhra Pradesh","Kadapa Airport","14.51","78.77278","CDP","29.19229198"
"Kalyandrug","14.55","77.1","Andhra Pradesh","Kadapa Airport","14.51","78.77278","CDP","180.1100731"
"Kovur","14.5001","79.9859","Andhra Pradesh","Kadapa Airport","14.51","78.77278","CDP","130.5976448"
"Podili","15.604","79.608","Andhra Pradesh","Kadapa Airport","14.51","78.77278","CDP","151.1321172"
"Chimakurti","15.5149","80.0368","Andhra Pradesh","Kadapa Airport","14.51","78.77278","CDP","175.8257864"
"Kaluvaya","14.5","79.4167","Andhra Pradesh","Kadapa Airport","14.51","78.77278","CDP","69.32731813"
"Atmakur","14.6167","79.6167","Andhra Pradesh","Kadapa Airport","14.51","78.77278","CDP","91.59616539"
"Pattikonda","15.4","77.5167","Andhra Pradesh","Kadapa Airport","14.51","78.77278","CDP","167.3373735"
"Nalakadoddi","15.4","77.5167","Andhra Pradesh","Kadapa Airport","14.51","78.77278","CDP","167.3373735"
"Tanguturu","15.35","80.05","Andhra Pradesh","Kadapa Airport","14.51","78.77278","CDP","165.9962714"
"Suluru","13.7","80.018","Andhra Pradesh","Kadapa Airport","14.51","78.77278","CDP","161.6941236"
"Penukonda","14.085","77.596","Andhra Pradesh","Kadapa Airport","14.51","78.77278","CDP","135.3187851"
"Pamidi","14.95","77.5833","Andhra Pradesh","Kadapa Airport","14.51","78.77278","CDP","136.9540723"
"Mamidalapadu","15.831","78.05","Andhra Pradesh","Kadapa Airport","14.51","78.77278","CDP","166.1108175"
"Buddayyakota","13.8196","78.1729","Andhra Pradesh","Kadapa Airport","14.51","78.77278","CDP","100.3809731"
"Kottakota","13.6592","78.2467","Andhra Pradesh","Kadapa Airport","14.51","78.77278","CDP","110.314385"
"Guduru","15.775","77.807","Andhra Pradesh","Kadapa Airport","14.51","78.77278","CDP","174.7305602"
"Renigunta","13.65","79.52","Andhra Pradesh","Kadapa Airport","14.51","78.77278","CDP","125.0575296"
"Maduru","14.7616","78.6171","Andhra Pradesh","Kadapa Airport","14.51","78.77278","CDP","32.6071296"
"Gorantla","13.9892","77.7703","Andhra Pradesh","Kadapa Airport","14.51","78.77278","CDP","122.5820341"
"Vinnamala","13.9074","79.9086","Andhra Pradesh","Kadapa Airport","14.51","78.77278","CDP","139.5694786"
"Singarayakonda","15.25","80.0203","Andhra Pradesh","Kadapa Airport","14.51","78.77278","CDP","157.302467"
"Ukkayapalle","14.4898","78.8927","Andhra Pradesh","Kadapa Airport","14.51","78.77278","CDP","13.10370914"
"Yadiki","15.05","77.88","Andhra Pradesh","Kadapa Airport","14.51","78.77278","CDP","113.2211123"
"Koilkuntla","15.2333","78.3167","Andhra Pradesh","Kadapa Airport","14.51","78.77278","CDP","94.18589567"
"Tirumala","13.6833","79.35","Andhra Pradesh","Kadapa Airport","14.51","78.77278","CDP","111.019354"
"Velugodu","15.7817","78.6892","Andhra Pradesh","Kadapa Airport","14.51","78.77278","CDP","141.6908439"
"Bukkarayasamudram","14.6944","77.6381","Andhra Pradesh","Kadapa Airport","14.51","78.77278","CDP","123.8048455"
"Pakala","13.4667","79.1167","Andhra Pradesh","Kadapa Airport","14.51","78.77278","CDP","121.799866"
"Madakasira","13.9369","77.2694","Andhra Pradesh","Kadapa Airport","14.51","78.77278","CDP","174.1228774"
"Chagalamarri","14.9667","78.5833","Andhra Pradesh","Kadapa Airport","14.51","78.77278","CDP","54.71803355"
"Banganapalle","15.3167","78.2333","Andhra Pradesh","Kadapa Airport","14.51","78.77278","CDP","106.8004889"
"Vinjamur","14.833","79.583","Andhra Pradesh","Kadapa Airport","14.51","78.77278","CDP","94.26495215"
"Kamalapuram","14.5833","78.65","Andhra Pradesh","Kadapa Airport","14.51","78.77278","CDP","15.52625516"
"Chandragiri","13.5833","79.3167","Andhra Pradesh","Kadapa Airport","14.51","78.77278","CDP","118.5770909"
"Gopavaram","14.7853","78.5728","Andhra Pradesh","Kadapa Airport","14.51","78.77278","CDP","37.41584553"
"Erragondapalem","16.0397","79.3043","Andhra Pradesh","Kadapa Airport","14.51","78.77278","CDP","179.395304"
"Kanekallu","14.8864","77.0317","Andhra Pradesh","Kadapa Airport","14.51","78.77278","CDP","191.8832149"
"Yandrapalle","16.0472","79.3073","Andhra Pradesh","Kadapa Airport","14.51","78.77278","CDP","180.2879679"
"Peruru","14.3503","77.3497","Andhra Pradesh","Kadapa Airport","14.51","78.77278","CDP","154.2722988"
"Narapala","14.7206","77.8106","Andhra Pradesh","Kadapa Airport","14.51","78.77278","CDP","106.1428712"
"Somandepalle","14.0078","77.6086","Andhra Pradesh","Kadapa Airport","14.51","78.77278","CDP","137.328505"
"Sirvel","15.321","78.5344","Andhra Pradesh","Kadapa Airport","14.51","78.77278","CDP","93.74597471"
"Tummalapenta","14.8997","80.0687","Andhra Pradesh","Kadapa Airport","14.51","78.77278","CDP","145.9600616"
"Veldurti","15.5667","77.9167","Andhra Pradesh","Kadapa Airport","14.51","78.77278","CDP","149.1888162"
"Vayalpad","13.65","78.6333","Andhra Pradesh","Kadapa Airport","14.51","78.77278","CDP","96.80365333"
"Gunjapalle","14.3845","77.9495","Andhra Pradesh","Kadapa Airport","14.51","78.77278","CDP","89.74129806"
"Padugupadu","14.4885","79.9923","Andhra Pradesh","Kadapa Airport","14.51","78.77278","CDP","131.3071691"
"Gudipallipadu","14.4588","80.0482","Andhra Pradesh","Kadapa Airport","14.51","78.77278","CDP","137.4303777"
"Pernamitta","15.5333","80","Andhra Pradesh","Kadapa Airport","14.51","78.77278","CDP","174.1182811"
"Tsundupalle","13.9809","78.9152","Andhra Pradesh","Kadapa Airport","14.51","78.77278","CDP","60.80256827"
"Gonegandla","15.7167","77.6","Andhra Pradesh","Kadapa Airport","14.51","78.77278","CDP","183.9923826"
"Podalakur","14.3667","79.7333","Andhra Pradesh","Kadapa Airport","14.51","78.77278","CDP","104.6517511"
"Kakkalapalle","14.6415","77.5668","Andhra Pradesh","Kadapa Airport","14.51","78.77278","CDP","130.6039156"
"Galivedu","14.0333","78.5","Andhra Pradesh","Kadapa Airport","14.51","78.77278","CDP","60.61188016"
"Kota","14.0333","80.05","Andhra Pradesh","Kadapa Airport","14.51","78.77278","CDP","147.4908725"
"Porumamilla","15.0167","78.9833","Andhra Pradesh","Kadapa Airport","14.51","78.77278","CDP","60.7194874"
"Chennur","14.5667","78.8","Andhra Pradesh","Kadapa Airport","14.51","78.77278","CDP","6.952243218"
"Vontimitta","14.3833","79.0333","Andhra Pradesh","Kadapa Airport","14.51","78.77278","CDP","31.39150886"
"Udayagiri","14.8667","79.3167","Andhra Pradesh","Kadapa Airport","14.51","78.77278","CDP","70.68198323"
"Chilamatturu","13.8394","77.7039","Andhra Pradesh","Kadapa Airport","14.51","78.77278","CDP","137.256212"
"Kambaduru","14.3575","77.2186","Andhra Pradesh","Kadapa Airport","14.51","78.77278","CDP","168.2187122"
"Bugganipalle","15.4741","78.175","Andhra Pradesh","Kadapa Airport","14.51","78.77278","CDP","124.9599195"
"Maddikera","15.25","77.417","Andhra Pradesh","Kadapa Airport","14.51","78.77278","CDP","167.3286408"
"Bhanumukkala","15.3119","78.2277","Andhra Pradesh","Kadapa Airport","14.51","78.77278","CDP","106.6821133"
"Mulakaledu","14.3648","76.9267","Andhra Pradesh","Kadapa Airport","14.51","78.77278","CDP","199.4462602"
"Pyapali","15.2669","77.7611","Andhra Pradesh","Kadapa Airport","14.51","78.77278","CDP","137.4869063"
"Cumbum","15.5667","79.1167","Andhra Pradesh","Kadapa Airport","14.51","78.77278","CDP","123.1670961"
"Gurramkonda","13.7833","78.5833","Andhra Pradesh","Kadapa Airport","14.51","78.77278","CDP","83.34802802"
"Putaparti","14.166","77.811","Andhra Pradesh","Kadapa Airport","14.51","78.77278","CDP","110.4487639"
"Peddapalle","14.4046","78.9456","Andhra Pradesh","Kadapa Airport","14.51","78.77278","CDP","21.99140133"
"Damalcheruvu","13.4833","79.05","Andhra Pradesh","Kadapa Airport","14.51","78.77278","CDP","118.0168405"
"Paniem","15.5167","78.35","Andhra Pradesh","Kadapa Airport","14.51","78.77278","CDP","120.7982407"
"Kottacheruvu","14.1886","77.7658","Andhra Pradesh","Kadapa Airport","14.51","78.77278","CDP","114.2129804"
"Nagireddipalli","14.2701","79.1013","Andhra Pradesh","Kadapa Airport","14.51","78.77278","CDP","44.31245588"
"Pakala","15.2694","80.072","Andhra Pradesh","Kadapa Airport","14.51","78.77278","CDP","163.1641157"
"Alur","15.3942","77.2264","Andhra Pradesh","Kadapa Airport","14.51","78.77278","CDP","193.0393228"
"Muttukuru","14.2667","80.1","Andhra Pradesh","Kadapa Airport","14.51","78.77278","CDP","145.4882288"
"Anantarazupeta","14.0014","79.3319","Andhra Pradesh","Kadapa Airport","14.51","78.77278","CDP","82.6388579"
"Uttukkottai","13.3354","79.898","Andhra Pradesh","Kadapa Airport","14.51","78.77278","CDP","178.3440524"
"Polukallu","15.8284","77.7431","Andhra Pradesh","Kadapa Airport","14.51","78.77278","CDP","183.5817222"
"Iskapalli","14.7363","80.0981","Andhra Pradesh","Kadapa Airport","14.51","78.77278","CDP","144.7981081"
"Kodigenahalli","13.8608","77.4792","Andhra Pradesh","Kadapa Airport","14.51","78.77278","CDP","157.0288722"
"Palkur","15.4144","78.2507","Andhra Pradesh","Kadapa Airport","14.51","78.77278","CDP","115.1461774"
"Bodagudipadu","14.7385","79.8602","Andhra Pradesh","Kadapa Airport","14.51","78.77278","CDP","119.7251106"
"Tummalapenta","15.0278","78.0234","Andhra Pradesh","Kadapa Airport","14.51","78.77278","CDP","99.03148683"
"Vempalle","13.5382","78.4604","Andhra Pradesh","Kadapa Airport","14.51","78.77278","CDP","113.1920405"
"Gudikallu","15.7441","77.476","Andhra Pradesh","Kadapa Airport","14.51","78.77278","CDP","195.4641946"
"Mangalapur","13.6245","79.5803","Andhra Pradesh","Kadapa Airport","14.51","78.77278","CDP","131.4575798"
"Rajupalem","15.1385","79.996","Andhra Pradesh","Kadapa Airport","14.51","78.77278","CDP","148.9061872"
"Kalikiri","13.6333","78.8","Andhra Pradesh","Kadapa Airport","14.51","78.77278","CDP","97.52879078"
"Atmakuru","14.6452","77.3554","Andhra Pradesh","Kadapa Airport","14.51","78.77278","CDP","153.2705505"
"Venkatagirikota","13.0012","78.4795","Andhra Pradesh","Kadapa Airport","14.51","78.77278","CDP","170.7348002"
"Nandyalampeta","14.7218","78.8083","Andhra Pradesh","Kadapa Airport","14.51","78.77278","CDP","23.85916997"
"Duvvuru","14.8333","78.65","Andhra Pradesh","Kadapa Airport","14.51","78.77278","CDP","38.29865635"
"Obalapuram","14.8","78.783","Andhra Pradesh","Kadapa Airport","14.51","78.77278","CDP","32.26526588"
"Battulapalle","14.5167","77.7833","Andhra Pradesh","Kadapa Airport","14.51","78.77278","CDP","106.5166958"
"Parigi","13.9069","77.4572","Andhra Pradesh","Kadapa Airport","14.51","78.77278","CDP","156.8671383"
"Belagal","15.8183","77.6702","Andhra Pradesh","Kadapa Airport","14.51","78.77278","CDP","187.5236994"
"Karedu","15.1833","80.0667","Andhra Pradesh","Kadapa Airport","14.51","78.77278","CDP","157.9443099"
"Zuvvaladinne","14.808","80.0705","Andhra Pradesh","Kadapa Airport","14.51","78.77278","CDP","143.4811221"
"Zaladanki","14.8843","79.9125","Andhra Pradesh","Kadapa Airport","14.51","78.77278","CDP","129.4569678"
"Guruvarajukuppam","13.1125","79.5472","Andhra Pradesh","Kadapa Airport","14.51","78.77278","CDP","176.4646685"
"Kolattur","13.3295","79.4797","Andhra Pradesh","Kadapa Airport","14.51","78.77278","CDP","151.8279552"
"Melavayi","13.9397","77.2256","Andhra Pradesh","Kadapa Airport","14.51","78.77278","CDP","178.4128357"
"Bukkapatnam","14.2","77.8","Andhra Pradesh","Kadapa Airport","14.51","78.77278","CDP","110.3146151"
"Pulakurti","15.7502","77.7091","Andhra Pradesh","Kadapa Airport","14.51","78.77278","CDP","179.0334626"
"Papampeta","14.6855","77.578","Andhra Pradesh","Kadapa Airport","14.51","78.77278","CDP","130.0372582"
"Karvetnagar","13.4167","79.45","Andhra Pradesh","Kadapa Airport","14.51","78.77278","CDP","141.8427109"
"Doranala","15.9","79.1","Andhra Pradesh","Kadapa Airport","14.51","78.77278","CDP","158.4986727"
"Tanakallu","13.92","78.18","Andhra Pradesh","Kadapa Airport","14.51","78.77278","CDP","91.57870401"
"Kirikera","13.769","77.4841","Andhra Pradesh","Kadapa Airport","14.51","78.77278","CDP","161.5446897"
"Chinna Orampadu","14.0613","79.2671","Andhra Pradesh","Kadapa Airport","14.51","78.77278","CDP","72.9835403"
"Allur","14.68","80.06","Andhra Pradesh","Kadapa Airport","14.51","78.77278","CDP","139.7972935"
"Owk","15.2167","78.1167","Andhra Pradesh","Kadapa Airport","14.51","78.77278","CDP","105.5787772"
"Nandimandalam","14.4052","78.5246","Andhra Pradesh","Kadapa Airport","14.51","78.77278","CDP","29.15282069"
"Kurabalakota","13.65","78.4833","Andhra Pradesh","Kadapa Airport","14.51","78.77278","CDP","100.5953042"
"Chennur","14.1473","79.8477","Andhra Pradesh","Kadapa Airport","14.51","78.77278","CDP","122.6288344"
"Kundurpi","14.2833","77.0333","Andhra Pradesh","Kadapa Airport","14.51","78.77278","CDP","189.035163"
"Satyavedu","13.437","79.956","Andhra Pradesh","Kadapa Airport","14.51","78.77278","CDP","174.7443973"
"Kalakada","13.8167","78.8","Andhra Pradesh","Kadapa Airport","14.51","78.77278","CDP","77.14728111"
"Pallipattu","13.3361","79.4413","Andhra Pradesh","Kadapa Airport","14.51","78.77278","CDP","149.1449839"
"Gundrajukuppam","13.3406","79.5687","Andhra Pradesh","Kadapa Airport","14.51","78.77278","CDP","155.8424178"
"Yalluru","15.3063","78.4559","Andhra Pradesh","Kadapa Airport","14.51","78.77278","CDP","94.86554282"
"Konakondla","15.1053","77.364","Andhra Pradesh","Kadapa Airport","14.51","78.77278","CDP","165.2800208"
"Iskapalem","14.5416","79.8925","Andhra Pradesh","Kadapa Airport","14.51","78.77278","CDP","120.5783713"
"Kovurupalli","14.7772","79.9999","Andhra Pradesh","Kadapa Airport","14.51","78.77278","CDP","135.3189977"
"Narayanavanam","13.42","79.58","Andhra Pradesh","Kadapa Airport","14.51","78.77278","CDP","149.2554194"
"Chintakunta","14.6476","78.469","Andhra Pradesh","Kadapa Airport","14.51","78.77278","CDP","36.09455007"
"Talupula","14.25","78.2667","Andhra Pradesh","Kadapa Airport","14.51","78.77278","CDP","61.70260881"
"Budili","13.9353","77.7355","Andhra Pradesh","Kadapa Airport","14.51","78.77278","CDP","128.7783972"
"Arambakkam","13.5258","80.071","Andhra Pradesh","Kadapa Airport","14.51","78.77278","CDP","177.7411364"
"Nagalapuram","13.3889","79.7967","Andhra Pradesh","Kadapa Airport","14.51","78.77278","CDP","166.5814479"
"Palukudoddi","15.8504","77.6753","Andhra Pradesh","Kadapa Airport","14.51","78.77278","CDP","189.9605662"
"Rolla","13.8331","77.1","Andhra Pradesh","Kadapa Airport","14.51","78.77278","CDP","195.419061"
"Chinna Annaluru","14.8913","79.6761","Andhra Pradesh","Kadapa Airport","14.51","78.77278","CDP","106.0046273"
"Nallamada","14.2164","77.9944","Andhra Pradesh","Kadapa Airport","14.51","78.77278","CDP","89.9779451"
"Sankhavaram","15.0497","78.9836","Andhra Pradesh","Kadapa Airport","14.51","78.77278","CDP","64.14977371"
"Erraguntla","15.2821","78.5106","Andhra Pradesh","Kadapa Airport","14.51","78.77278","CDP","90.35798123"
"Yellayapalem","14.5378","79.9515","Andhra Pradesh","Kadapa Airport","14.51","78.77278","CDP","126.9166776"
"Kondakomarla","14.0678","77.9561","Andhra Pradesh","Kadapa Airport","14.51","78.77278","CDP","100.806276"
"Moda","13.8246","77.4421","Andhra Pradesh","Kadapa Airport","14.51","78.77278","CDP","162.4504507"
"Jaladurgam","15.284","77.9001","Andhra Pradesh","Kadapa Airport","14.51","78.77278","CDP","127.2829446"
"Komarolu","15.2667","79","Andhra Pradesh","Kadapa Airport","14.51","78.77278","CDP","87.61247301"
"Enumulapalle","14.1446","77.8166","Andhra Pradesh","Kadapa Airport","14.51","78.77278","CDP","110.7383717"
"Sangam","14.5956","79.7428","Andhra Pradesh","Kadapa Airport","14.51","78.77278","CDP","104.8336405"
"Hemavati","14.0232","76.995","Andhra Pradesh","Kadapa Airport","14.51","78.77278","CDP","199.0825118"
"Gudibanda","13.9753","77.1046","Andhra Pradesh","Kadapa Airport","14.51","78.77278","CDP","189.3662896"
"Chinnamandem","13.9419","78.6814","Andhra Pradesh","Kadapa Airport","14.51","78.77278","CDP","63.93307502"
"Ghattu","13.6602","78.3331","Andhra Pradesh","Kadapa Airport","14.51","78.77278","CDP","105.7244001"
"Nagambhotlapalem","15.6804","79.8151","Andhra Pradesh","Kadapa Airport","14.51","78.77278","CDP","171.6346945"
"Devanakonda","15.5333","77.55","Andhra Pradesh","Kadapa Airport","14.51","78.77278","CDP","173.7576378"
"Krishnamsettipalle","15.3695","78.884","Andhra Pradesh","Kadapa Airport","14.51","78.77278","CDP","96.31610205"
"Vikrutamala","13.6206","79.5642","Andhra Pradesh","Kadapa Airport","14.51","78.77278","CDP","130.6419668"
"Koduru","13.8692","77.7298","Andhra Pradesh","Kadapa Airport","14.51","78.77278","CDP","133.1116053"
"Tripurantakam","16.0007","79.4563","Andhra Pradesh","Kadapa Airport","14.51","78.77278","CDP","181.2514883"
"Peravali","15.2861","77.4997","Andhra Pradesh","Kadapa Airport","14.51","78.77278","CDP","161.7456519"
"Konkavaripalle","13.7125","78.4861","Andhra Pradesh","Kadapa Airport","14.51","78.77278","CDP","93.91232721"
"Lakkireddipalle","14.1667","78.7","Andhra Pradesh","Kadapa Airport","14.51","78.77278","CDP","38.97012468"
"Srisailain","16.0833","78.8667","Andhra Pradesh","Kadapa Airport","14.51","78.77278","CDP","175.232737"
"Gaunivaripalle","13.9756","77.8768","Andhra Pradesh","Kadapa Airport","14.51","78.77278","CDP","113.3840759"
"Somireddipalle","14.8365","78.9062","Andhra Pradesh","Kadapa Airport","14.51","78.77278","CDP","39.03890819"
"Reddipalle","14.1993","78.0102","Andhra Pradesh","Kadapa Airport","14.51","78.77278","CDP","89.11678493"
"Nagasamudram","15.0556","77.5004","Andhra Pradesh","Kadapa Airport","14.51","78.77278","CDP","149.6475365"
"Kandulapuram","15.5976","79.1365","Andhra Pradesh","Kadapa Airport","14.51","78.77278","CDP","127.0855058"
"Roddam","14.1","77.43","Andhra Pradesh","Kadapa Airport","14.51","78.77278","CDP","151.6931744"
"Vutukuru","14.5778","80.1423","Andhra Pradesh","Kadapa Airport","14.51","78.77278","CDP","147.5962594"
"Kondakindi Agraharam","14.679","77.7401","Andhra Pradesh","Kadapa Airport","14.51","78.77278","CDP","112.7012339"
"Jangalapalle","14.8997","79.8936","Andhra Pradesh","Kadapa Airport","14.51","78.77278","CDP","128.0987973"
"Rangasamudram","14.9852","78.9765","Andhra Pradesh","Kadapa Airport","14.51","78.77278","CDP","57.20081723"
"Lepakshi","13.81","77.6","Andhra Pradesh","Kadapa Airport","14.51","78.77278","CDP","148.4808605"
"Medarametla","15.7167","80.0167","Andhra Pradesh","Kadapa Airport","14.51","78.77278","CDP","189.2995343"
"Nidamaluru","15.6547","80.0678","Andhra Pradesh","Kadapa Airport","14.51","78.77278","CDP","188.5006881"
"Kambhaladinne","15.1274","79.5413","Andhra Pradesh","Kadapa Airport","14.51","78.77278","CDP","107.4147497"
"Erraballa","14.3971","78.1744","Andhra Pradesh","Kadapa Airport","14.51","78.77278","CDP","65.64254699"
"Itikalapalle","14.6013","77.6582","Andhra Pradesh","Kadapa Airport","14.51","78.77278","CDP","120.3864906"
"Erraguntlakota","13.9622","79.2768","Andhra Pradesh","Kadapa Airport","14.51","78.77278","CDP","81.61705451"
"Chakicherla","15.1127","80.0366","Andhra Pradesh","Kadapa Airport","14.51","78.77278","CDP","151.4900725"
"Ammanabrolu","15.5802","80.1488","Andhra Pradesh","Kadapa Airport","14.51","78.77278","CDP","189.7204712"
"Namakadu","14.006","80.1194","Andhra Pradesh","Kadapa Airport","14.51","78.77278","CDP","155.5690968"
"Itamukkala","15.3731","80.113","Andhra Pradesh","Kadapa Airport","14.51","78.77278","CDP","173.0387556"
"Manubolu","14.1833","79.8833","Andhra Pradesh","Kadapa Airport","14.51","78.77278","CDP","125.026874"
"Padarti","15.469","80.183","Andhra Pradesh","Kadapa Airport","14.51","78.77278","CDP","185.2423946"
"Muddanuru","14.6667","78.4","Andhra Pradesh","Kadapa Airport","14.51","78.77278","CDP","43.7356355"
"Rangasamudram","13.714","78.2645","Andhra Pradesh","Kadapa Airport","14.51","78.77278","CDP","104.1084847"
"Vanipenta","14.7906","78.7805","Andhra Pradesh","Kadapa Airport","14.51","78.77278","CDP","31.21234775"
"Pondaluru","14.2535","79.2408","Andhra Pradesh","Kadapa Airport","14.51","78.77278","CDP","57.91975203"
"Gandlapenta","14.05","78.3089","Andhra Pradesh","Kadapa Airport","14.51","78.77278","CDP","71.51927057"
"Pagidyala","15.9333","78.3333","Andhra Pradesh","Kadapa Airport","14.51","78.77278","CDP","165.1385054"
"Trovagunta","15.5509","80.0589","Andhra Pradesh","Kadapa Airport","14.51","78.77278","CDP","180.200206"
"Molagavalli","15.3567","77.3301","Andhra Pradesh","Kadapa Airport","14.51","78.77278","CDP","181.3521585"
"Kankanalapalle","15.9923","79.4848","Andhra Pradesh","Kadapa Airport","14.51","78.77278","CDP","181.6624595"
"Kadimetla","15.7376","77.5385","Andhra Pradesh","Kadapa Airport","14.51","78.77278","CDP","190.2270371"
"Rangapuram","15.4092","78.0746","Andhra Pradesh","Kadapa Airport","14.51","78.77278","CDP","124.9903473"
"Asudapuram","15.878","78.132","Andhra Pradesh","Kadapa Airport","14.51","78.77278","CDP","166.9330452"
"Nulivedu","14.1002","78.5548","Andhra Pradesh","Kadapa Airport","14.51","78.77278","CDP","51.26438605"
"Boddikurapadu","15.6591","79.7509","Andhra Pradesh","Kadapa Airport","14.51","78.77278","CDP","165.3897339"
"Timmapuram","15.4887","78.5744","Andhra Pradesh","Kadapa Airport","14.51","78.77278","CDP","110.8926878"
"Satravada","13.3201","79.5488","Andhra Pradesh","Kadapa Airport","14.51","78.77278","CDP","156.5922078"
"Katteragandla","15.0091","78.9584","Andhra Pradesh","Kadapa Airport","14.51","78.77278","CDP","58.97725705"
"Morubagalu","13.9702","77.0411","Andhra Pradesh","Kadapa Airport","14.51","78.77278","CDP","196.0506402"
"Mangasamudram","13.2291","79.0909","Andhra Pradesh","Kadapa Airport","14.51","78.77278","CDP","146.5110897"
"Govindapalle","15.3525","78.5224","Andhra Pradesh","Kadapa Airport","14.51","78.77278","CDP","97.46748773"
"Tettu","13.6275","78.4322","Andhra Pradesh","Kadapa Airport","14.51","78.77278","CDP","104.779858"
"Venkatadripalem","16.0506","79.217","Andhra Pradesh","Kadapa Airport","14.51","78.77278","CDP","177.8097171"
"Uppugunduru","15.673","80.167","Andhra Pradesh","Kadapa Airport","14.51","78.77278","CDP","197.8072082"
"Kurichedu","15.9","79.5833","Andhra Pradesh","Kadapa Airport","14.51","78.77278","CDP","177.348622"
"Jangalapalli","14.4818","79.8906","Andhra Pradesh","Kadapa Airport","14.51","78.77278","CDP","120.3797473"
"Kalicherla","13.8833","78.5333","Andhra Pradesh","Kadapa Airport","14.51","78.77278","CDP","74.31394061"
"Settivaripalle","14.7543","78.7649","Andhra Pradesh","Kadapa Airport","14.51","78.77278","CDP","27.17814693"
"Peddannavaripalle","14.2535","78.3384","Andhra Pradesh","Kadapa Airport","14.51","78.77278","CDP","54.79520444"
"Gudluru","15.0667","79.9","Andhra Pradesh","Kadapa Airport","14.51","78.77278","CDP","136.0828795"
"Hosuru","15.3797","77.4598","Andhra Pradesh","Kadapa Airport","14.51","78.77278","CDP","171.0234425"
"Yekambarakuppam","13.3168","79.5678","Andhra Pradesh","Kadapa Airport","14.51","78.77278","CDP","158.0068694"
"Gazulapalle","15.4036","78.6176","Andhra Pradesh","Kadapa Airport","14.51","78.77278","CDP","100.7524949"
"Chitvel","14.1667","79.3333","Andhra Pradesh","Kadapa Airport","14.51","78.77278","CDP","71.43940916"
"Polakala","13.3458","78.8167","Andhra Pradesh","Kadapa Airport","14.51","78.77278","CDP","129.5398835"
"Gangapatnam","14.5237","80.1521","Andhra Pradesh","Kadapa Airport","14.51","78.77278","CDP","148.4843711"
"Pullalacheruvu","16.1589","79.3986","Andhra Pradesh","Kadapa Airport","14.51","78.77278","CDP","195.2445048"
"Duvvuru","14.5507","79.8331","Andhra Pradesh","Kadapa Airport","14.51","78.77278","CDP","114.2206748"
"Vinjam","13.2544","79.263","Andhra Pradesh","Kadapa Airport","14.51","78.77278","CDP","149.3080205"
"Jonnagiri","15.2303","77.5714","Andhra Pradesh","Kadapa Airport","14.51","78.77278","CDP","151.9374656"
"Vidapanakallu","15.0667","77.1833","Andhra Pradesh","Kadapa Airport","14.51","78.77278","CDP","181.7527191"
"Teranikallu","15.6392","77.5303","Andhra Pradesh","Kadapa Airport","14.51","78.77278","CDP","183.1974568"
"Rudravaram","15.266","78.628","Andhra Pradesh","Kadapa Airport","14.51","78.77278","CDP","85.49098"
"Malaimarpuram","14.2096","79.3072","Andhra Pradesh","Kadapa Airport","14.51","78.77278","CDP","66.55708453"
"Pendekallu","15.3753","77.6242","Andhra Pradesh","Kadapa Airport","14.51","78.77278","CDP","156.4744552"
"Virapalle","14.1556","78.8569","Andhra Pradesh","Kadapa Airport","14.51","78.77278","CDP","40.4361174"
"Angallu","13.6287","78.4857","Andhra Pradesh","Kadapa Airport","14.51","78.77278","CDP","102.7715715"
"Bommagondanahalli","13.8984","77.0733","Andhra Pradesh","Kadapa Airport","14.51","78.77278","CDP","195.4103958"
"Pyalakurti","15.7286","77.8168","Andhra Pradesh","Kadapa Airport","14.51","78.77278","CDP","169.9744147"
"Rompicherla","13.7228","79.0542","Andhra Pradesh","Kadapa Airport","14.51","78.77278","CDP","92.64404138"
"Guntapalli","14.7385","79.04","Andhra Pradesh","Kadapa Airport","14.51","78.77278","CDP","38.36898718"
"Chintakommadinne","14.4267","78.7618","Andhra Pradesh","Kadapa Airport","14.51","78.77278","CDP","9.337676099"
"Anantasagaram","14.5833","79.4167","Andhra Pradesh","Kadapa Airport","14.51","78.77278","CDP","69.78296511"
"Miduturu","15.7667","78.3","Andhra Pradesh","Kadapa Airport","14.51","78.77278","CDP","148.667305"
"Chapalamadugu","16.073","79.3775","Andhra Pradesh","Kadapa Airport","14.51","78.77278","CDP","185.5054823"
"Kolumalapalle","15.4774","78.1293","Andhra Pradesh","Kadapa Airport","14.51","78.77278","CDP","127.8598259"
"Kandanati","15.6997","77.4757","Andhra Pradesh","Kadapa Airport","14.51","78.77278","CDP","192.0643997"
"Mandalapalle","14.0209","77.7511","Andhra Pradesh","Kadapa Airport","14.51","78.77278","CDP","122.8016253"
"Repala","15","79.7","Andhra Pradesh","Kadapa Airport","14.51","78.77278","CDP","113.6183058"
"Munnelli","14.92","78.9546","Andhra Pradesh","Kadapa Airport","14.51","78.77278","CDP","49.60656813"
"Itanagar","27.1","93.62","Arunachal Pradesh","Daporijo Airport","27.9855","94.2228","DEP","115.008601"
"Pasighat","28.07","95.33","Arunachal Pradesh","Daporijo Airport","27.9855","94.2228","DEP","109.0811409"
"Koloriang","27.9167","93.35","Arunachal Pradesh","Daporijo Airport","27.9855","94.2228","DEP","86.07021257"
"Tezu","27.92","96.17","Arunachal Pradesh","Daporijo Airport","27.9855","94.2228","DEP","191.3950667"
"Ziro","27.5664","93.8314","Arunachal Pradesh","Daporijo Airport","27.9855","94.2228","DEP","60.45247128"
"Khagam","27.32","95.9","Arunachal Pradesh","Daporijo Airport","27.9855","94.2228","DEP","181.0085229"
"Tinkhang","27.23","95.17","Assam","Dibrugarh Airport","27.4839","95.0169","DIB","32.02626543"
"Dibrugarh","27.48","95","Assam","Dibrugarh Airport","27.4839","95.0169","DIB","1.722618189"
"Jorhat","26.75","94.22","Assam","Dibrugarh Airport","27.4839","95.0169","DIB","113.4900006"
"Tinsukia","27.5","95.367","Assam","Dibrugarh Airport","27.4839","95.0169","DIB","34.57963597"
"North Lakhimpur","27.2414","94.1056","Assam","Dibrugarh Airport","27.4839","95.0169","DIB","93.94699988"
"Sibsagar","26.98","94.63","Assam","Dibrugarh Airport","27.4839","95.0169","DIB","67.84358825"
"Golaghat","26.52","93.97","Assam","Dibrugarh Airport","27.4839","95.0169","DIB","149.1479045"
"Digboi","27.3932","95.6184","Assam","Dibrugarh Airport","27.4839","95.0169","DIB","60.21030163"
"Margherita","27.28","95.68","Assam","Dibrugarh Airport","27.4839","95.0169","DIB","69.28673663"
"Dum Duma","27.5688","95.5566","Assam","Dibrugarh Airport","27.4839","95.0169","DIB","54.04924515"
"Namrup","27.1939","95.3193","Assam","Dibrugarh Airport","27.4839","95.0169","DIB","43.95482687"
"Sonari","27.0246","95.0163","Assam","Dibrugarh Airport","27.4839","95.0169","DIB","51.07186425"
"Mariani","26.67","94.33","Assam","Dibrugarh Airport","27.4839","95.0169","DIB","113.2055847"
"Nahorkatiya","27.2891","95.3418","Assam","Dibrugarh Airport","27.4839","95.0169","DIB","38.70658091"
"Dergaon","26.7","93.9667","Assam","Dibrugarh Airport","27.4839","95.0169","DIB","135.6685765"
"Dhemaji","27.4833","94.5833","Assam","Dibrugarh Airport","27.4839","95.0169","DIB","42.77284784"
"Bihpuriagaon","27.0172","93.9167","Assam","Dibrugarh Airport","27.4839","95.0169","DIB","120.5045663"
"Gohpur","26.8818","93.6156","Assam","Dibrugarh Airport","27.4839","95.0169","DIB","153.9285532"
"Bokakhat","26.6402","93.6005","Assam","Dibrugarh Airport","27.4839","95.0169","DIB","168.7344518"
"Barpathar","26.2871","93.8884","Assam","Dibrugarh Airport","27.4839","95.0169","DIB","173.8822102"
"Moranha","27.1874","94.9156","Assam","Dibrugarh Airport","27.4839","95.0169","DIB","34.45429252"
"Supaul","26.126","86.605","Bihar","Lok Nayak Jayaprakash Airport","25.5913","85.088","PAT","163.0201615"
"Patna","25.594","85.1376","Bihar","Lok Nayak Jayaprakash Airport","25.5913","85.088","PAT","4.983206215"
"Bihta","25.5619","84.87","Bihar","Lok Nayak Jayaprakash Airport","25.5913","85.088","PAT","22.10817758"
"Gaya","24.75","85.01","Bihar","Lok Nayak Jayaprakash Airport","25.5913","85.088","PAT","93.87703612"
"Mothihari","26.65","84.9167","Bihar","Lok Nayak Jayaprakash Airport","25.5913","85.088","PAT","118.9578111"
"Bettiah","26.8014","84.5028","Bihar","Lok Nayak Jayaprakash Airport","25.5913","85.088","PAT","146.6781006"
"Bhagalpur","25.25","87","Bihar","Lok Nayak Jayaprakash Airport","25.5913","85.088","PAT","195.7327381"
"Sasaram","24.95","84.03","Bihar","Lok Nayak Jayaprakash Airport","25.5913","85.088","PAT","128.0730569"
"Muzaffarpur","26.1225","85.3906","Bihar","Lok Nayak Jayaprakash Airport","25.5913","85.088","PAT","66.37534365"
"Bihar","25.197","85.518","Bihar","Lok Nayak Jayaprakash Airport","25.5913","85.088","PAT","61.54687899"
"Darbhanga","26.17","85.9","Bihar","Lok Nayak Jayaprakash Airport","25.5913","85.088","PAT","103.6324262"
"Surajgarha","25.25","86.23","Bihar","Lok Nayak Jayaprakash Airport","25.5913","85.088","PAT","120.8053175"
"Sonpur","25.7","85.18","Bihar","Lok Nayak Jayaprakash Airport","25.5913","85.088","PAT","15.20332519"
"Arrah","25.5514","84.6603","Bihar","Lok Nayak Jayaprakash Airport","25.5913","85.088","PAT","43.1284746"
"Samastipur","25.8629","85.7811","Bihar","Lok Nayak Jayaprakash Airport","25.5913","85.088","PAT","75.71326195"
"Begusarai","25.42","86.13","Bihar","Lok Nayak Jayaprakash Airport","25.5913","85.088","PAT","106.2934841"
"Ramnagar","27.17","84.32","Bihar","Lok Nayak Jayaprakash Airport","25.5913","85.088","PAT","191.4883308"
"Masaurhi Buzurg","25.35","85.02","Bihar","Lok Nayak Jayaprakash Airport","25.5913","85.088","PAT","27.68608744"
"Monghyr","25.381","86.465","Bihar","Lok Nayak Jayaprakash Airport","25.5913","85.088","PAT","140.1791163"
"Chapra","25.7848","84.7274","Bihar","Lok Nayak Jayaprakash Airport","25.5913","85.088","PAT","42.05486418"
"Mokameh","25.3898","85.9191","Bihar","Lok Nayak Jayaprakash Airport","25.5913","85.088","PAT","86.37462254"
"Dinapore","25.6225","85.0417","Bihar","Lok Nayak Jayaprakash Airport","25.5913","85.088","PAT","5.795705139"
"Nawada","24.88","85.53","Bihar","Lok Nayak Jayaprakash Airport","25.5913","85.088","PAT","90.73105819"
"Harnaut","25.3694","85.5319","Bihar","Lok Nayak Jayaprakash Airport","25.5913","85.088","PAT","50.93384892"
"Deo","24.6561","84.4356","Bihar","Lok Nayak Jayaprakash Airport","25.5913","85.088","PAT","122.9941889"
"Madhubani","26.3519","86.0719","Bihar","Lok Nayak Jayaprakash Airport","25.5913","85.088","PAT","129.7171135"
"Saharsa","25.88","86.6","Bihar","Lok Nayak Jayaprakash Airport","25.5913","85.088","PAT","154.8135219"
"Hajipur","25.6925","85.2084","Bihar","Lok Nayak Jayaprakash Airport","25.5913","85.088","PAT","16.50146273"
"Dehri","24.91","84.18","Bihar","Lok Nayak Jayaprakash Airport","25.5913","85.088","PAT","118.6502728"
"Durgauti","25.2114","83.5308","Bihar","Lok Nayak Jayaprakash Airport","25.5913","85.088","PAT","162.0158587"
"Siwan","26.22","84.36","Bihar","Lok Nayak Jayaprakash Airport","25.5913","85.088","PAT","100.9414441"
"Bagaha","27.0992","84.09","Bihar","Lok Nayak Jayaprakash Airport","25.5913","85.088","PAT","194.9412107"
"Sitamarhi","26.6","85.48","Bihar","Lok Nayak Jayaprakash Airport","25.5913","85.088","PAT","118.7966851"
"Jamalpur","25.3","86.5","Bihar","Lok Nayak Jayaprakash Airport","25.5913","85.088","PAT","145.4286447"
"Buxar","25.5605","83.9805","Bihar","Lok Nayak Jayaprakash Airport","25.5913","85.088","PAT","111.1340465"
"Aurangabad","24.7","84.35","Bihar","Lok Nayak Jayaprakash Airport","25.5913","85.088","PAT","123.8565727"
"Luckeesarai","25.1678","86.0944","Bihar","Lok Nayak Jayaprakash Airport","25.5913","85.088","PAT","111.5343961"
"Jamui","24.9278","86.2239","Bihar","Lok Nayak Jayaprakash Airport","25.5913","85.088","PAT","135.9823787"
"Piro","25.33","84.42","Bihar","Lok Nayak Jayaprakash Airport","25.5913","85.088","PAT","73.08770992"
"Gaura","25.4961","85.9709","Bihar","Lok Nayak Jayaprakash Airport","25.5913","85.088","PAT","89.20826428"
"Madhipura","25.92","86.792","Bihar","Lok Nayak Jayaprakash Airport","25.5913","85.088","PAT","174.5213341"
"Pakribarawan","24.9516","85.7347","Bihar","Lok Nayak Jayaprakash Airport","25.5913","85.088","PAT","96.3752604"
"Gopalganj","26.47","84.43","Bihar","Lok Nayak Jayaprakash Airport","25.5913","85.088","PAT","117.7658866"
"Khagaul","25.579","85.0456","Bihar","Lok Nayak Jayaprakash Airport","25.5913","85.088","PAT","4.466901946"
"Sheikhpura","25.1403","85.8508","Bihar","Lok Nayak Jayaprakash Airport","25.5913","85.088","PAT","91.59074494"
"Bhabhua","25.05","83.62","Bihar","Lok Nayak Jayaprakash Airport","25.5913","85.088","PAT","159.3546891"
"Dumraon","25.5526","84.1515","Bihar","Lok Nayak Jayaprakash Airport","25.5913","85.088","PAT","94.03180891"
"Khagaria","25.5022","86.4671","Bihar","Lok Nayak Jayaprakash Airport","25.5913","85.088","PAT","138.7101998"
"Raxaul","26.9833","84.85","Bihar","Lok Nayak Jayaprakash Airport","25.5913","85.088","PAT","156.5912865"
"Bakhtiyarpur","25.459","85.539","Bihar","Lok Nayak Jayaprakash Airport","25.5913","85.088","PAT","47.58523131"
"Sultanganj","25.246","86.738","Bihar","Lok Nayak Jayaprakash Airport","25.5913","85.088","PAT","170.0993645"
"Daudnagar","25.03","84.4","Bihar","Lok Nayak Jayaprakash Airport","25.5913","85.088","PAT","93.15710357"
"Lakhminia","25.4126","86.3253","Bihar","Lok Nayak Jayaprakash Airport","25.5913","85.088","PAT","125.7562513"
"Arwal","25.2442","84.6631","Bihar","Lok Nayak Jayaprakash Airport","25.5913","85.088","PAT","57.53813356"
"Fatwa","25.5096","85.305","Bihar","Lok Nayak Jayaprakash Airport","25.5913","85.088","PAT","23.58909598"
"Bikramganj","25.2107","84.2551","Bihar","Lok Nayak Jayaprakash Airport","25.5913","85.088","PAT","93.7558079"
"Bar Bigha","25.2186","85.7332","Bihar","Lok Nayak Jayaprakash Airport","25.5913","85.088","PAT","76.92308861"
"Hilsa","25.32","85.28","Bihar","Lok Nayak Jayaprakash Airport","25.5913","85.088","PAT","35.80017077"
"Bihat","25.4253","86.0208","Bihar","Lok Nayak Jayaprakash Airport","25.5913","85.088","PAT","95.4142559"
"Majurwa","26.1036","86.9193","Bihar","Lok Nayak Jayaprakash Airport","25.5913","85.088","PAT","191.9067057"
"Dhaka","26.72","85.33","Bihar","Lok Nayak Jayaprakash Airport","25.5913","85.088","PAT","127.8086508"
"Barhiya","25.2833","86.0333","Bihar","Lok Nayak Jayaprakash Airport","25.5913","85.088","PAT","100.9115365"
"Bairagnia","26.7381","85.2736","Bihar","Lok Nayak Jayaprakash Airport","25.5913","85.088","PAT","128.8565494"
"Kharik","25.3679","87.0026","Bihar","Lok Nayak Jayaprakash Airport","25.5913","85.088","PAT","193.7843363"
"Karmegh","26.5307","86.4263","Bihar","Lok Nayak Jayaprakash Airport","25.5913","85.088","PAT","169.6501887"
"Barauli","26.3815","84.5872","Bihar","Lok Nayak Jayaprakash Airport","25.5913","85.088","PAT","101.1239248"
"Rajgir","25.03","85.42","Bihar","Lok Nayak Jayaprakash Airport","25.5913","85.088","PAT","70.77571265"
"Sagauli","26.7639","84.7434","Bihar","Lok Nayak Jayaprakash Airport","25.5913","85.088","PAT","134.8452678"
"Buddh Gaya","24.6981","84.9869","Bihar","Lok Nayak Jayaprakash Airport","25.5913","85.088","PAT","99.83928499"
"Sherghati","24.5617","84.7953","Bihar","Lok Nayak Jayaprakash Airport","25.5913","85.088","PAT","118.2204873"
"Phulwaria","25.4697","85.9847","Bihar","Lok Nayak Jayaprakash Airport","25.5913","85.088","PAT","90.98269162"
"Pachrukha","26.7373","84.8861","Bihar","Lok Nayak Jayaprakash Airport","25.5913","85.088","PAT","129.0125634"
"Lalganj","25.87","85.18","Bihar","Lok Nayak Jayaprakash Airport","25.5913","85.088","PAT","32.33122953"
"Islampur","25.1407","85.2059","Bihar","Lok Nayak Jayaprakash Airport","25.5913","85.088","PAT","51.48572329"
"Revelganj","25.78","84.67","Bihar","Lok Nayak Jayaprakash Airport","25.5913","85.088","PAT","46.84816804"
"Charaut","26.5322","85.7942","Bihar","Lok Nayak Jayaprakash Airport","25.5913","85.088","PAT","126.1821133"
"Rani","25.5564","85.9021","Bihar","Lok Nayak Jayaprakash Airport","25.5913","85.088","PAT","81.74717554"
"Jale","26.38","85.72","Bihar","Lok Nayak Jayaprakash Airport","25.5913","85.088","PAT","108.0814763"
"Jagdispur","25.4674","84.4204","Bihar","Lok Nayak Jayaprakash Airport","25.5913","85.088","PAT","68.38790064"
"Punarakh","25.493","85.8054","Bihar","Lok Nayak Jayaprakash Airport","25.5913","85.088","PAT","72.80020671"
"Dighwara","25.7443","85.01","Bihar","Lok Nayak Jayaprakash Airport","25.5913","85.088","PAT","18.72289714"
"Majhaul","25.557","86.128","Bihar","Lok Nayak Jayaprakash Airport","25.5913","85.088","PAT","104.3823355"
"Kharagpur","25.1245","86.5558","Bihar","Lok Nayak Jayaprakash Airport","25.5913","85.088","PAT","156.3523392"
"Rafiganj","24.82","84.65","Bihar","Lok Nayak Jayaprakash Airport","25.5913","85.088","PAT","96.42273751"
"Pandaul","26.2517","86.0747","Bihar","Lok Nayak Jayaprakash Airport","25.5913","85.088","PAT","123.0021404"
"Bibhutpur","25.6878","85.9992","Bihar","Lok Nayak Jayaprakash Airport","25.5913","85.088","PAT","91.97206164"
"Dulhanganj","25.382","84.858","Bihar","Lok Nayak Jayaprakash Airport","25.5913","85.088","PAT","32.78110552"
"Kita Chauhattar","25.677","84.872","Bihar","Lok Nayak Jayaprakash Airport","25.5913","85.088","PAT","23.65819405"
"Baraidih","25.9798","86.1434","Bihar","Lok Nayak Jayaprakash Airport","25.5913","85.088","PAT","114.1585249"
"Waris Aliganj","25.01","85.63","Bihar","Lok Nayak Jayaprakash Airport","25.5913","85.088","PAT","84.53855897"
"Bangaon","25.8673","86.5115","Bihar","Lok Nayak Jayaprakash Airport","25.5913","85.088","PAT","145.8570826"
"Madhubani","26.5147","84.7645","Bihar","Lok Nayak Jayaprakash Airport","25.5913","85.088","PAT","107.6427392"
"Siripur","25.997","86.9599","Bihar","Lok Nayak Jayaprakash Airport","25.5913","85.088","PAT","192.7577289"
"Hisua","24.8336","85.4173","Bihar","Lok Nayak Jayaprakash Airport","25.5913","85.088","PAT","90.53130277"
"Borne","25.5431","86.6999","Bihar","Lok Nayak Jayaprakash Airport","25.5913","85.088","PAT","161.7721596"
"Turkauliya","26.6079","84.8296","Bihar","Lok Nayak Jayaprakash Airport","25.5913","85.088","PAT","115.948151"
"Chand Chaur","25.7276","85.7865","Bihar","Lok Nayak Jayaprakash Airport","25.5913","85.088","PAT","71.63175247"
"Belhi","26.5769","86.1723","Bihar","Lok Nayak Jayaprakash Airport","25.5913","85.088","PAT","154.0670645"
"Chamtha","25.5789","85.7734","Bihar","Lok Nayak Jayaprakash Airport","25.5913","85.088","PAT","68.75367662"
"Makhdumpur","25.072","84.973","Bihar","Lok Nayak Jayaprakash Airport","25.5913","85.088","PAT","58.88885556"
"Puraini","25.1426","86.9797","Bihar","Lok Nayak Jayaprakash Airport","25.5913","85.088","PAT","196.503455"
"Sherpur","25.6539","84.9793","Bihar","Lok Nayak Jayaprakash Airport","25.5913","85.088","PAT","12.93156729"
"Jhanjharpur","26.2647","86.2799","Bihar","Lok Nayak Jayaprakash Airport","25.5913","85.088","PAT","140.7601046"
"Alamnagar","25.561","86.9014","Bihar","Lok Nayak Jayaprakash Airport","25.5913","85.088","PAT","181.9123404"
"Singia","25.8424","86.1622","Bihar","Lok Nayak Jayaprakash Airport","25.5913","85.088","PAT","111.177142"
"Nautan Dube","26.7118","84.503","Bihar","Lok Nayak Jayaprakash Airport","25.5913","85.088","PAT","137.5966898"
"Nauagarhi","25.3443","86.5358","Bihar","Lok Nayak Jayaprakash Airport","25.5913","85.088","PAT","147.9156813"
"Sanha","25.402","86.3592","Bihar","Lok Nayak Jayaprakash Airport","25.5913","85.088","PAT","129.3090185"
"Rusera","25.7544","86.0258","Bihar","Lok Nayak Jayaprakash Airport","25.5913","85.088","PAT","95.71804489"
"Bairi Chak","24.6951","84.9913","Bihar","Lok Nayak Jayaprakash Airport","25.5913","85.088","PAT","100.1271264"
"Babura","25.6838","84.7825","Bihar","Lok Nayak Jayaprakash Airport","25.5913","85.088","PAT","32.30670278"
"Rahimpur","25.4894","86.4774","Bihar","Lok Nayak Jayaprakash Airport","25.5913","85.088","PAT","139.8564274"
"Jamalpur","25.4112","86.6593","Bihar","Lok Nayak Jayaprakash Airport","25.5913","85.088","PAT","158.964056"
"Riga","26.6553","85.442","Bihar","Lok Nayak Jayaprakash Airport","25.5913","85.088","PAT","123.4770565"
"Marhaura","25.97","84.87","Bihar","Lok Nayak Jayaprakash Airport","25.5913","85.088","PAT","47.43056464"
"Sursand","26.65","85.7167","Bihar","Lok Nayak Jayaprakash Airport","25.5913","85.088","PAT","133.4097558"
"Marar","25.5392","86.5074","Bihar","Lok Nayak Jayaprakash Airport","25.5913","85.088","PAT","142.4947611"
"Raghopur","26.1785","86.0892","Bihar","Lok Nayak Jayaprakash Airport","25.5913","85.088","PAT","119.5613232"
"Pokhram","25.9358","86.1974","Bihar","Lok Nayak Jayaprakash Airport","25.5913","85.088","PAT","117.5152709"
"Murliganj","25.9","86.98","Bihar","Lok Nayak Jayaprakash Airport","25.5913","85.088","PAT","192.5784181"
"Nauhata","25.9971","86.4887","Bihar","Lok Nayak Jayaprakash Airport","25.5913","85.088","PAT","147.3119568"
"Simri Bakhriarpur","25.7216","86.5937","Bihar","Lok Nayak Jayaprakash Airport","25.5913","85.088","PAT","151.6120658"
"Saho","25.9718","86.1537","Bihar","Lok Nayak Jayaprakash Airport","25.5913","85.088","PAT","114.7862456"
"Sheohar","26.52","85.3","Bihar","Lok Nayak Jayaprakash Airport","25.5913","85.088","PAT","105.4157836"
"Dhabauli","25.8346","86.8057","Bihar","Lok Nayak Jayaprakash Airport","25.5913","85.088","PAT","174.1987215"
"Malmal","26.4833","86.05","Bihar","Lok Nayak Jayaprakash Airport","25.5913","85.088","PAT","138.1129547"
"Amarpur","25.0397","86.9025","Bihar","Lok Nayak Jayaprakash Airport","25.5913","85.088","PAT","192.4218503"
"Parsa","26.0021","84.5979","Bihar","Lok Nayak Jayaprakash Airport","25.5913","85.088","PAT","67.03717698"
"Kantai","26.2142","85.2975","Bihar","Lok Nayak Jayaprakash Airport","25.5913","85.088","PAT","72.36375181"
"Patjirwa","26.8084","84.3847","Bihar","Lok Nayak Jayaprakash Airport","25.5913","85.088","PAT","152.4433528"
"Nasriganj","25.0514","84.3284","Bihar","Lok Nayak Jayaprakash Airport","25.5913","85.088","PAT","97.12430138"
"Bihpur","25.3889","86.9337","Bihar","Lok Nayak Jayaprakash Airport","25.5913","85.088","PAT","186.6155061"
"Nokha","25.1015","84.1228","Bihar","Lok Nayak Jayaprakash Airport","25.5913","85.088","PAT","111.238068"
"Nainijor","25.6811","84.3456","Bihar","Lok Nayak Jayaprakash Airport","25.5913","85.088","PAT","75.09147798"
"Maner","25.65","84.88","Bihar","Lok Nayak Jayaprakash Airport","25.5913","85.088","PAT","21.85205676"
"Areraj","26.5527","84.6726","Bihar","Lok Nayak Jayaprakash Airport","25.5913","85.088","PAT","114.6715797"
"Thatha","25.4988","86.5908","Bihar","Lok Nayak Jayaprakash Airport","25.5913","85.088","PAT","151.1183677"
"Dalsingh Sarai","25.668","85.8364","Bihar","Lok Nayak Jayaprakash Airport","25.5913","85.088","PAT","75.51339572"
"Silao","25.0836","85.428","Bihar","Lok Nayak Jayaprakash Airport","25.5913","85.088","PAT","65.98903286"
"Ghataro Chaturbhuj","25.8146","85.1862","Bihar","Lok Nayak Jayaprakash Airport","25.5913","85.088","PAT","26.70813605"
"Koelwar","25.5805","84.7975","Bihar","Lok Nayak Jayaprakash Airport","25.5913","85.088","PAT","29.1592758"
"Rasiari","26.0464","86.3471","Bihar","Lok Nayak Jayaprakash Airport","25.5913","85.088","PAT","135.8088073"
"Mirganj","26.3638","84.364","Bihar","Lok Nayak Jayaprakash Airport","25.5913","85.088","PAT","112.3207173"
"Sograha","25.4798","85.9992","Bihar","Lok Nayak Jayaprakash Airport","25.5913","85.088","PAT","92.26024618"
"Jirwa","26.0064","86.8604","Bihar","Lok Nayak Jayaprakash Airport","25.5913","85.088","PAT","183.3414597"
"Baruni","25.4751","85.9681","Bihar","Lok Nayak Jayaprakash Airport","25.5913","85.088","PAT","89.24506805"
"Masrakh","26.1054","84.8026","Bihar","Lok Nayak Jayaprakash Airport","25.5913","85.088","PAT","63.90254804"
"Jharka","26.3047","85.6686","Bihar","Lok Nayak Jayaprakash Airport","25.5913","85.088","PAT","98.29850406"
"Bishunpur Sundar","26.0579","86.9833","Bihar","Lok Nayak Jayaprakash Airport","25.5913","85.088","PAT","196.6654943"
"Kako","25.2259","85.0642","Bihar","Lok Nayak Jayaprakash Airport","25.5913","85.088","PAT","40.70088465"
"Chainpura","25.52","86.31","Bihar","Lok Nayak Jayaprakash Airport","25.5913","85.088","PAT","122.8422567"
"Bathnaha","26.6433","85.5747","Bihar","Lok Nayak Jayaprakash Airport","25.5913","85.088","PAT","126.667969"
"Nonahi","26.7892","85.6482","Bihar","Lok Nayak Jayaprakash Airport","25.5913","85.088","PAT","144.4525057"
"Gulam","25.7965","86.7416","Bihar","Lok Nayak Jayaprakash Airport","25.5913","85.088","PAT","167.2537301"
"Sahibpur Kamal","25.4167","86.3901","Bihar","Lok Nayak Jayaprakash Airport","25.5913","85.088","PAT","132.111914"
"Nabinagar","24.62","84.12","Bihar","Lok Nayak Jayaprakash Airport","25.5913","85.088","PAT","145.4797676"
"Barki Ballia","25.4223","86.2758","Bihar","Lok Nayak Jayaprakash Airport","25.5913","85.088","PAT","120.6759819"
"Simria","25.9663","85.8324","Bihar","Lok Nayak Jayaprakash Airport","25.5913","85.088","PAT","85.40654429"
"Naubatpur","25.5","84.9611","Bihar","Lok Nayak Jayaprakash Airport","25.5913","85.088","PAT","16.28338629"
"Simaria","25.4221","86.006","Bihar","Lok Nayak Jayaprakash Airport","25.5913","85.088","PAT","94.02924559"
"Raghopur","25.5323","85.3809","Bihar","Lok Nayak Jayaprakash Airport","25.5913","85.088","PAT","30.10468242"
"Basopatti","26.578","86.0052","Bihar","Lok Nayak Jayaprakash Airport","25.5913","85.088","PAT","142.9258013"
"Mairwa","26.2322","84.1635","Bihar","Lok Nayak Jayaprakash Airport","25.5913","85.088","PAT","116.7402111"
"Panapur","25.6729","85.0715","Bihar","Lok Nayak Jayaprakash Airport","25.5913","85.088","PAT","9.223056106"
"Ramdiri","25.3118","86.1023","Bihar","Lok Nayak Jayaprakash Airport","25.5913","85.088","PAT","106.4754629"
"Sirkhandi Bhitha","26.6244","85.7787","Bihar","Lok Nayak Jayaprakash Airport","25.5913","85.088","PAT","133.9867527"
"Andhra Tharhi","26.3771","86.3341","Bihar","Lok Nayak Jayaprakash Airport","25.5913","85.088","PAT","152.1440518"
"Garhara","25.4407","85.9983","Bihar","Lok Nayak Jayaprakash Airport","25.5913","85.088","PAT","92.87021201"
"Nagarpara","25.4155","86.8832","Bihar","Lok Nayak Jayaprakash Airport","25.5913","85.088","PAT","181.2222903"
"Baheri","25.9426","86.0471","Bihar","Lok Nayak Jayaprakash Airport","25.5913","85.088","PAT","103.6826333"
"Maharajgani","26.1075","84.5025","Bihar","Lok Nayak Jayaprakash Airport","25.5913","85.088","PAT","82.02086509"
"Umga","24.6396","84.5577","Bihar","Lok Nayak Jayaprakash Airport","25.5913","85.088","PAT","118.5298166"
"Jaisinghpur","26.6318","84.7855","Bihar","Lok Nayak Jayaprakash Airport","25.5913","85.088","PAT","119.5755358"
"Sangrampur","26.4752","84.6898","Bihar","Lok Nayak Jayaprakash Airport","25.5913","85.088","PAT","106.0320719"
"Siswa","26.7027","84.9133","Bihar","Lok Nayak Jayaprakash Airport","25.5913","85.088","PAT","124.8061817"
"Karian","25.8594","86.0104","Bihar","Lok Nayak Jayaprakash Airport","25.5913","85.088","PAT","97.09007244"
"Kumar Khad","26.5918","86.264","Bihar","Lok Nayak Jayaprakash Airport","25.5913","85.088","PAT","161.765153"
"Bithar","26.6294","85.7697","Bihar","Lok Nayak Jayaprakash Airport","25.5913","85.088","PAT","134.0043152"
"Belsand","26.4436","85.4008","Bihar","Lok Nayak Jayaprakash Airport","25.5913","85.088","PAT","99.79275576"
"Chanaur","25.851","86.6739","Bihar","Lok Nayak Jayaprakash Airport","25.5913","85.088","PAT","161.4732743"
"Dighwa","26.2437","84.7532","Bihar","Lok Nayak Jayaprakash Airport","25.5913","85.088","PAT","79.89815225"
"Tekari","24.9425","84.8427","Bihar","Lok Nayak Jayaprakash Airport","25.5913","85.088","PAT","76.24356251"
"Mahthi","25.7281","86.0093","Bihar","Lok Nayak Jayaprakash Airport","25.5913","85.088","PAT","93.58535184"
"Singhara Buzurg","25.7964","85.4539","Bihar","Lok Nayak Jayaprakash Airport","25.5913","85.088","PAT","43.17768668"
"Koiri Bigha","25.2167","85.0667","Bihar","Lok Nayak Jayaprakash Airport","25.5913","85.088","PAT","41.70852641"
"Khaira Tola","26.8958","84.1403","Bihar","Lok Nayak Jayaprakash Airport","25.5913","85.088","PAT","173.1282501"
"Latauna","26.0912","86.8809","Bihar","Lok Nayak Jayaprakash Airport","25.5913","85.088","PAT","187.8371233"
"Bhiraha","25.7978","86.0736","Bihar","Lok Nayak Jayaprakash Airport","25.5913","85.088","PAT","101.3908517"
"Bhadas","25.5184","86.4434","Bihar","Lok Nayak Jayaprakash Airport","25.5913","85.088","PAT","136.2105166"
"Kaler","25.118","84.4955","Bihar","Lok Nayak Jayaprakash Airport","25.5913","85.088","PAT","79.46291062"
"Muradpur","25.8","86.0055","Bihar","Lok Nayak Jayaprakash Airport","25.5913","85.088","PAT","94.8159345"
"Dip","26.2369","86.3107","Bihar","Lok Nayak Jayaprakash Airport","25.5913","85.088","PAT","141.800173"
"Sarea Khas","26.635","84.5483","Bihar","Lok Nayak Jayaprakash Airport","25.5913","85.088","PAT","127.9537166"
"Taulaha","26.9566","84.0731","Bihar","Lok Nayak Jayaprakash Airport","25.5913","85.088","PAT","182.4464505"
"Chausa","25.5283","87.0322","Bihar","Lok Nayak Jayaprakash Airport","25.5913","85.088","PAT","195.1523292"
"Bakhri","25.5989","86.2607","Bihar","Lok Nayak Jayaprakash Airport","25.5913","85.088","PAT","117.6048909"
"Chakia","26.416","85.0467","Bihar","Lok Nayak Jayaprakash Airport","25.5913","85.088","PAT","91.79529273"
"Rajauli","24.6449","85.5003","Bihar","Lok Nayak Jayaprakash Airport","25.5913","85.088","PAT","113.1256606"
"Danwan","25.5292","84.4598","Bihar","Lok Nayak Jayaprakash Airport","25.5913","85.088","PAT","63.39345577"
"Jaynagar","26.5925","86.1372","Bihar","Lok Nayak Jayaprakash Airport","25.5913","85.088","PAT","152.877514"
"Chatra Gobraura","26.4973","86.2179","Bihar","Lok Nayak Jayaprakash Airport","25.5913","85.088","PAT","151.2966607"
"Sarai Ranjan","25.7671","85.7245","Bihar","Lok Nayak Jayaprakash Airport","25.5913","85.088","PAT","66.71347857"
"Qadirganj","24.9138","85.5926","Bihar","Lok Nayak Jayaprakash Airport","25.5913","85.088","PAT","90.83225465"
"Jaipur Chuhar","25.4187","86.8352","Bihar","Lok Nayak Jayaprakash Airport","25.5913","85.088","PAT","176.3926021"
"Raja Pakar","25.735","85.3376","Bihar","Lok Nayak Jayaprakash Airport","25.5913","85.088","PAT","29.68402826"
"Bariarpur","25.686","86.0295","Bihar","Lok Nayak Jayaprakash Airport","25.5913","85.088","PAT","94.96772092"
"Mohiuddinnagar","25.7428","86.0812","Bihar","Lok Nayak Jayaprakash Airport","25.5913","85.088","PAT","100.9565311"
"Nirmali","26.314","86.5854","Bihar","Lok Nayak Jayaprakash Airport","25.5913","85.088","PAT","169.9143323"
"Rupauli","25.8695","87.06","Bihar","Lok Nayak Jayaprakash Airport","25.5913","85.088","PAT","199.9398351"
"Sarari","26.2523","84.5484","Bihar","Lok Nayak Jayaprakash Airport","25.5913","85.088","PAT","91.18279693"
"Saurh","25.3789","86.8223","Bihar","Lok Nayak Jayaprakash Airport","25.5913","85.088","PAT","175.6744085"
"Amodei","26.8975","84.8182","Bihar","Lok Nayak Jayaprakash Airport","25.5913","85.088","PAT","147.7140873"
"Behat","26.2435","86.2799","Bihar","Lok Nayak Jayaprakash Airport","25.5913","85.088","PAT","139.5295991"
"Patpara","26.4328","86.1916","Bihar","Lok Nayak Jayaprakash Airport","25.5913","85.088","PAT","144.6289926"
"Manjhi","25.8384","84.5788","Bihar","Lok Nayak Jayaprakash Airport","25.5913","85.088","PAT","57.94190237"
"Koath","25.3264","84.2598","Bihar","Lok Nayak Jayaprakash Airport","25.5913","85.088","PAT","88.21192424"
"Gaura","26.48","85.39","Bihar","Lok Nayak Jayaprakash Airport","25.5913","85.088","PAT","103.3226333"
"Barhampur","26.3042","86.4729","Bihar","Lok Nayak Jayaprakash Airport","25.5913","85.088","PAT","159.5533818"
"Supaul","25.9469","86.2497","Bihar","Lok Nayak Jayaprakash Airport","25.5913","85.088","PAT","122.8649055"
"Hardi","26.0785","86.6809","Bihar","Lok Nayak Jayaprakash Airport","25.5913","85.088","PAT","168.3712819"
"Bhojpur Kadim","25.5841","84.1265","Bihar","Lok Nayak Jayaprakash Airport","25.5913","85.088","PAT","96.4314796"
"Birpur","25.5209","85.4614","Bihar","Lok Nayak Jayaprakash Airport","25.5913","85.088","PAT","38.26720796"
"Shamgarh","25.8935","86.8759","Bihar","Lok Nayak Jayaprakash Airport","25.5913","85.088","PAT","182.1989474"
"Sidhapa","26.5355","86.3355","Bihar","Lok Nayak Jayaprakash Airport","25.5913","85.088","PAT","162.9409307"
"Bhopatpur","26.4495","84.8545","Bihar","Lok Nayak Jayaprakash Airport","25.5913","85.088","PAT","98.23839021"
"Asarganj","25.15","86.68","Bihar","Lok Nayak Jayaprakash Airport","25.5913","85.088","PAT","167.305675"
"Bhaluhar","24.82","84.65","Bihar","Lok Nayak Jayaprakash Airport","25.5913","85.088","PAT","96.42273751"
"Bazidpur Madhaul","25.5236","85.4572","Bihar","Lok Nayak Jayaprakash Airport","25.5913","85.088","PAT","37.79353735"
"Sanrh Majhgawan","24.6845","85.365","Bihar","Lok Nayak Jayaprakash Airport","25.5913","85.088","PAT","104.6158728"
"Chatia","26.5396","84.566","Bihar","Lok Nayak Jayaprakash Airport","25.5913","85.088","PAT","117.6324306"
"Kochas","25.234","83.9215","Bihar","Lok Nayak Jayaprakash Airport","25.5913","85.088","PAT","123.7108716"
"Bishunpur","26.0868","86.6541","Bihar","Lok Nayak Jayaprakash Airport","25.5913","85.088","PAT","166.1326085"
"Beldaur","25.5947","86.7909","Bihar","Lok Nayak Jayaprakash Airport","25.5913","85.088","PAT","170.7746925"
"Cherakhera","25.6869","86.4187","Bihar","Lok Nayak Jayaprakash Airport","25.5913","85.088","PAT","133.8201683"
"Lehara","26.1515","86.1034","Bihar","Lok Nayak Jayaprakash Airport","25.5913","85.088","PAT","119.1671637"
"Sadpur","25.4758","86.3786","Bihar","Lok Nayak Jayaprakash Airport","25.5913","85.088","PAT","130.1269481"
"Morwa","25.803","85.6861","Bihar","Lok Nayak Jayaprakash Airport","25.5913","85.088","PAT","64.38558577"
"Huseni","26.3768","84.7952","Bihar","Lok Nayak Jayaprakash Airport","25.5913","85.088","PAT","92.11638867"
"Pathrajolhania","26.1369","86.6614","Bihar","Lok Nayak Jayaprakash Airport","25.5913","85.088","PAT","168.7125623"
"Parsahi Sirsia","26.4676","86.4984","Bihar","Lok Nayak Jayaprakash Airport","25.5913","85.088","PAT","171.3263045"
"Mahinawan","26.0208","86.1672","Bihar","Lok Nayak Jayaprakash Airport","25.5913","85.088","PAT","118.1188637"
"Pahsara","25.5482","86.1667","Bihar","Lok Nayak Jayaprakash Airport","25.5913","85.088","PAT","108.3043072"
"Pohadi","26.0809","86.2831","Bihar","Lok Nayak Jayaprakash Airport","25.5913","85.088","PAT","131.4122756"
"Bhojpur Jadid","25.588","84.1621","Bihar","Lok Nayak Jayaprakash Airport","25.5913","85.088","PAT","92.85708371"
"Kudra","25.0463","83.7926","Bihar","Lok Nayak Jayaprakash Airport","25.5913","85.088","PAT","143.6163445"
"Ghosai","25.5562","87.0304","Bihar","Lok Nayak Jayaprakash Airport","25.5913","85.088","PAT","194.8624037"
"Dumra","26.5671","85.5204","Bihar","Lok Nayak Jayaprakash Airport","25.5913","85.088","PAT","116.7819536"
"Ghogardiha","26.2799","86.47","Bihar","Lok Nayak Jayaprakash Airport","25.5913","85.088","PAT","157.9871875"
"Morauna","26.1706","86.4231","Bihar","Lok Nayak Jayaprakash Airport","25.5913","85.088","PAT","148.286709"
"Shahpur","25.6029","84.4041","Bihar","Lok Nayak Jayaprakash Airport","25.5913","85.088","PAT","68.59466124"
"Harpur","26.4527","86.071","Bihar","Lok Nayak Jayaprakash Airport","25.5913","85.088","PAT","137.1933875"
"Mahisi","25.8544","86.465","Bihar","Lok Nayak Jayaprakash Airport","25.5913","85.088","PAT","141.0096575"
"Simri","25.6405","84.1195","Bihar","Lok Nayak Jayaprakash Airport","25.5913","85.088","PAT","97.26125235"
"Manjha","26.4061","84.5002","Bihar","Lok Nayak Jayaprakash Airport","25.5913","85.088","PAT","107.9799126"
"Sarangpur","25.7389","85.6951","Bihar","Lok Nayak Jayaprakash Airport","25.5913","85.088","PAT","63.02087682"
"Birpur","25.5181","86.0826","Bihar","Lok Nayak Jayaprakash Airport","25.5913","85.088","PAT","100.1066502"
"Siripur","26.7336","84.7217","Bihar","Lok Nayak Jayaprakash Airport","25.5913","85.088","PAT","132.1739556"
"Sarso","26.2333","86.1768","Bihar","Lok Nayak Jayaprakash Airport","25.5913","85.088","PAT","130.2092644"
"Sugaon","26.7317","84.7629","Bihar","Lok Nayak Jayaprakash Airport","25.5913","85.088","PAT","130.8916681"
"Sabalpur","25.6053","85.1835","Bihar","Lok Nayak Jayaprakash Airport","25.5913","85.088","PAT","9.702499497"
"Maranchi","25.3544","85.9919","Bihar","Lok Nayak Jayaprakash Airport","25.5913","85.088","PAT","94.48456673"
"Harihans","26.1457","84.3476","Bihar","Lok Nayak Jayaprakash Airport","25.5913","85.088","PAT","96.37389561"
"Gunri","25.6408","84.658","Bihar","Lok Nayak Jayaprakash Airport","25.5913","85.088","PAT","43.4641681"
"Sonhauli","25.5108","86.4707","Bihar","Lok Nayak Jayaprakash Airport","25.5913","85.088","PAT","139.0006255"
"Lakhna","25.4532","85.1431","Bihar","Lok Nayak Jayaprakash Airport","25.5913","85.088","PAT","16.32105479"
"Laualagaon","25.494","87.0412","Bihar","Lok Nayak Jayaprakash Airport","25.5913","85.088","PAT","196.2558175"
"Telwa","25.8796","86.3837","Bihar","Lok Nayak Jayaprakash Airport","25.5913","85.088","PAT","133.684082"
"Basatpur","26.0011","85.0643","Bihar","Lok Nayak Jayaprakash Airport","25.5913","85.088","PAT","45.62941189"
"Kothia","25.7612","84.8811","Bihar","Lok Nayak Jayaprakash Airport","25.5913","85.088","PAT","28.05045479"
"Rohar","25.9917","86.2366","Bihar","Lok Nayak Jayaprakash Airport","25.5913","85.088","PAT","123.3128602"
"Lodhwe","24.6404","85.2913","Bihar","Lok Nayak Jayaprakash Airport","25.5913","85.088","PAT","107.6981459"
"Tilothu","24.8051","84.0833","Bihar","Lok Nayak Jayaprakash Airport","25.5913","85.088","PAT","133.6438787"
"Bhawanipur","26.4361","84.7356","Bihar","Lok Nayak Jayaprakash Airport","25.5913","85.088","PAT","100.3210916"
"Nari Bhadaun","26.0065","86.2509","Bihar","Lok Nayak Jayaprakash Airport","25.5913","85.088","PAT","125.2394873"
"Kasba Maker","25.9591","85.0316","Bihar","Lok Nayak Jayaprakash Airport","25.5913","85.088","PAT","41.28557069"
"Mathurapur","25.5112","86.4557","Bihar","Lok Nayak Jayaprakash Airport","25.5913","85.088","PAT","137.4958836"
"Kanp","25.8337","86.7402","Bihar","Lok Nayak Jayaprakash Airport","25.5913","85.088","PAT","167.704012"
"Mohiuddinnagar","25.5737","85.6694","Bihar","Lok Nayak Jayaprakash Airport","25.5913","85.088","PAT","58.3436417"
"Dumri","25.5356","85.5996","Bihar","Lok Nayak Jayaprakash Airport","25.5913","85.088","PAT","51.690869"
"Barhampur","25.5976","84.3011","Bihar","Lok Nayak Jayaprakash Airport","25.5913","85.088","PAT","78.91635909"
"Manikpur","25.91","86.821","Bihar","Lok Nayak Jayaprakash Airport","25.5913","85.088","PAT","177.143586"
"Paharpur","25.5681","85.3763","Bihar","Lok Nayak Jayaprakash Airport","25.5913","85.088","PAT","29.0302421"
"Kopa","25.8513","84.6308","Bihar","Lok Nayak Jayaprakash Airport","25.5913","85.088","PAT","54.16230089"
"Ulao","25.4165","86.0936","Bihar","Lok Nayak Jayaprakash Airport","25.5913","85.088","PAT","102.7760268"
"Sakri","26.2197","86.0853","Bihar","Lok Nayak Jayaprakash Airport","25.5913","85.088","PAT","121.7893755"
"Mahraurh","25.2378","84.1017","Bihar","Lok Nayak Jayaprakash Airport","25.5913","85.088","PAT","106.5716186"
"Athar","26.0392","86.059","Bihar","Lok Nayak Jayaprakash Airport","25.5913","85.088","PAT","109.2118682"
"Chaita","25.7671","85.8792","Bihar","Lok Nayak Jayaprakash Airport","25.5913","85.088","PAT","81.66230173"
"Pachmir","25.4077","86.3803","Bihar","Lok Nayak Jayaprakash Airport","25.5913","85.088","PAT","131.2958397"
"Marwa","25.3994","86.9257","Bihar","Lok Nayak Jayaprakash Airport","25.5913","85.088","PAT","185.6726595"
"Pariharpur","26.7114","85.6797","Bihar","Lok Nayak Jayaprakash Airport","25.5913","85.088","PAT","137.841641"
"Bagahi","26.7632","84.467","Bihar","Lok Nayak Jayaprakash Airport","25.5913","85.088","PAT","144.2931717"
"Dhamaun","25.5999","85.5479","Bihar","Lok Nayak Jayaprakash Airport","25.5913","85.088","PAT","46.12999126"
"Laukaha","26.55","86.47","Bihar","Lok Nayak Jayaprakash Airport","25.5913","85.088","PAT","174.4048092"
"Kalyanpur Bamaiya","25.714","85.9212","Bihar","Lok Nayak Jayaprakash Airport","25.5913","85.088","PAT","84.62275834"
"Dumri","25.4014","86.1165","Bihar","Lok Nayak Jayaprakash Airport","25.5913","85.088","PAT","105.3636501"
"Pupri","26.4708","85.7031","Bihar","Lok Nayak Jayaprakash Airport","25.5913","85.088","PAT","115.5030527"
"Raghunathpur","25.844","86.9697","Bihar","Lok Nayak Jayaprakash Airport","25.5913","85.088","PAT","190.5901926"
"Barhampur","26.3023","85.7476","Bihar","Lok Nayak Jayaprakash Airport","25.5913","85.088","PAT","102.9556523"
"Khutaha","25.2645","86.0598","Bihar","Lok Nayak Jayaprakash Airport","25.5913","85.088","PAT","104.1365967"
"Koriapatti","26.1149","86.9905","Bihar","Lok Nayak Jayaprakash Airport","25.5913","85.088","PAT","199.076729"
"Lakhnaur","26.202","86.309","Bihar","Lok Nayak Jayaprakash Airport","25.5913","85.088","PAT","139.7428532"
"Reota","25.8194","86.3061","Bihar","Lok Nayak Jayaprakash Airport","25.5913","85.088","PAT","124.6494664"
"Karahia","26.4054","86.149","Bihar","Lok Nayak Jayaprakash Airport","25.5913","85.088","PAT","139.4219959"
"Jhagarua","26.0059","86.3496","Bihar","Lok Nayak Jayaprakash Airport","25.5913","85.088","PAT","134.4512482"
"Banni","25.4692","86.6068","Bihar","Lok Nayak Jayaprakash Airport","25.5913","85.088","PAT","152.995496"
"Gothini","26.1626","84.0379","Bihar","Lok Nayak Jayaprakash Airport","25.5913","85.088","PAT","122.7700961"
"Mau Dhaneshpur","25.5899","85.8337","Bihar","Lok Nayak Jayaprakash Airport","25.5913","85.088","PAT","74.78414112"
"Pohadi","26.0387","86.1612","Bihar","Lok Nayak Jayaprakash Airport","25.5913","85.088","PAT","118.3848637"
"Keota","25.644","85.8287","Bihar","Lok Nayak Jayaprakash Airport","25.5913","85.088","PAT","74.49657047"
"Jawkatia","26.7308","84.6263","Bihar","Lok Nayak Jayaprakash Airport","25.5913","85.088","PAT","134.8249322"
"Raiyam","26.2702","86.2071","Bihar","Lok Nayak Jayaprakash Airport","25.5913","85.088","PAT","134.990156"
"Sarotar","26.4291","84.7813","Bihar","Lok Nayak Jayaprakash Airport","25.5913","85.088","PAT","98.07126492"
"Matauna","26.6699","85.487","Bihar","Lok Nayak Jayaprakash Airport","25.5913","85.088","PAT","126.3759733"
"Alauli","25.644","86.4065","Bihar","Lok Nayak Jayaprakash Airport","25.5913","85.088","PAT","132.3278678"
"Naula","25.5535","86.0636","Bihar","Lok Nayak Jayaprakash Airport","25.5913","85.088","PAT","97.94496197"
"Kakraul","26.362","86.0139","Bihar","Lok Nayak Jayaprakash Airport","25.5913","85.088","PAT","126.1353805"
"Shankar Saraiya","26.5967","84.8526","Bihar","Lok Nayak Jayaprakash Airport","25.5913","85.088","PAT","114.2399976"
"Sikandra","24.9564","86.0344","Bihar","Lok Nayak Jayaprakash Airport","25.5913","85.088","PAT","118.4886268"
"Ughara","26.0563","86.0013","Bihar","Lok Nayak Jayaprakash Airport","25.5913","85.088","PAT","105.0222817"
"Bishunpura","26.5436","84.4364","Bihar","Lok Nayak Jayaprakash Airport","25.5913","85.088","PAT","124.2927339"
"Baikatpur","25.4939","85.3792","Bihar","Lok Nayak Jayaprakash Airport","25.5913","85.088","PAT","31.1581551"
"Rampur Jalalpur","25.6712","85.8606","Bihar","Lok Nayak Jayaprakash Airport","25.5913","85.088","PAT","77.96321281"
"Dhobauli","25.4008","86.1885","Bihar","Lok Nayak Jayaprakash Airport","25.5913","85.088","PAT","112.4654727"
"Havi Bhauar","26.1091","86.1059","Bihar","Lok Nayak Jayaprakash Airport","25.5913","85.088","PAT","117.005552"
"Deoria","26.1791","85.0234","Bihar","Lok Nayak Jayaprakash Airport","25.5913","85.088","PAT","65.6790862"
"Kundal","25.762","86.2081","Bihar","Lok Nayak Jayaprakash Airport","25.5913","85.088","PAT","113.8437178"
"Khirhar","26.5168","85.9618","Bihar","Lok Nayak Jayaprakash Airport","25.5913","85.088","PAT","134.9430525"
"Bariarpur","25.292","86.571","Bihar","Lok Nayak Jayaprakash Airport","25.5913","85.088","PAT","152.5830847"
"Mohan Eghu","25.4002","86.145","Bihar","Lok Nayak Jayaprakash Airport","25.5913","85.088","PAT","108.1941891"
"Mangrauni","26.3479","86.0719","Bihar","Lok Nayak Jayaprakash Airport","25.5913","85.088","PAT","129.4288396"
"Amba Icharua","25.614","86.4258","Bihar","Lok Nayak Jayaprakash Airport","25.5913","85.088","PAT","134.1737169"
"Dighaun","25.5549","86.8097","Bihar","Lok Nayak Jayaprakash Airport","25.5913","85.088","PAT","172.7357299"
"Dahibhat Madhopur","26.2763","86.0847","Bihar","Lok Nayak Jayaprakash Airport","25.5913","85.088","PAT","125.4393252"
"Sakardih","25.228","85.3546","Bihar","Lok Nayak Jayaprakash Airport","25.5913","85.088","PAT","48.46567911"
"Baro","25.4487","85.9924","Bihar","Lok Nayak Jayaprakash Airport","25.5913","85.088","PAT","92.12768452"
"Mahesh Khunt","25.45","86.6333","Bihar","Lok Nayak Jayaprakash Airport","25.5913","85.088","PAT","155.8571583"
"Kesath","25.4208","84.2414","Bihar","Lok Nayak Jayaprakash Airport","25.5913","85.088","PAT","87.05230641"
"Noniya","26.6763","84.6163","Bihar","Lok Nayak Jayaprakash Airport","25.5913","85.088","PAT","129.5097979"
"Malhipur","25.4069","86.0234","Bihar","Lok Nayak Jayaprakash Airport","25.5913","85.088","PAT","96.09299817"
"Barharwa Kalan","26.5434","84.8286","Bihar","Lok Nayak Jayaprakash Airport","25.5913","85.088","PAT","108.9930076"
"Cheran","25.361","85.5421","Bihar","Lok Nayak Jayaprakash Airport","25.5913","85.088","PAT","52.28440688"
"Mukhtarpur Salkani","25.6643","85.7784","Bihar","Lok Nayak Jayaprakash Airport","25.5913","85.088","PAT","69.69091218"
"Singhwara","26.1842","85.7368","Bihar","Lok Nayak Jayaprakash Airport","25.5913","85.088","PAT","92.51410024"
"Khutauna","26.4969","86.3959","Bihar","Lok Nayak Jayaprakash Airport","25.5913","85.088","PAT","164.9620685"
"Kanhauli Manohar","25.9755","84.6853","Bihar","Lok Nayak Jayaprakash Airport","25.5913","85.088","PAT","58.74356345"
"Itahri","25.313","86.5459","Bihar","Lok Nayak Jayaprakash Airport","25.5913","85.088","PAT","149.6116982"
"Ramnagar","26.0773","86.8387","Bihar","Lok Nayak Jayaprakash Airport","25.5913","85.088","PAT","183.3558208"
"Rustampur","25.57","85.3061","Bihar","Lok Nayak Jayaprakash Airport","25.5913","85.088","PAT","22.00227721"
"Math Lohiyar","26.6247","84.7072","Bihar","Lok Nayak Jayaprakash Airport","25.5913","85.088","PAT","121.0359076"
"Khusropur","25.4817","85.3849","Bihar","Lok Nayak Jayaprakash Airport","25.5913","85.088","PAT","32.18519979"
"Kajur","24.8768","85.292","Bihar","Lok Nayak Jayaprakash Airport","25.5913","85.088","PAT","82.0556752"
"Birhana","25.4489","85.7054","Bihar","Lok Nayak Jayaprakash Airport","25.5913","85.088","PAT","63.94505"
"Rani Shakarpura","25.5534","86.2992","Bihar","Lok Nayak Jayaprakash Airport","25.5913","85.088","PAT","121.5588865"
"Sughrain","25.746","86.325","Bihar","Lok Nayak Jayaprakash Airport","25.5913","85.088","PAT","125.1612832"
"Obra","24.891","84.3742","Bihar","Lok Nayak Jayaprakash Airport","25.5913","85.088","PAT","105.9140079"
"Mohanpur","25.562","85.5917","Bihar","Lok Nayak Jayaprakash Airport","25.5913","85.088","PAT","50.62540487"
"Chhapra Bahas","26.7266","84.7912","Bihar","Lok Nayak Jayaprakash Airport","25.5913","85.088","PAT","129.6683068"
"Belaur","25.4477","84.6473","Bihar","Lok Nayak Jayaprakash Airport","25.5913","85.088","PAT","47.01714616"
"Dhumnagar","26.756","84.5233","Bihar","Lok Nayak Jayaprakash Airport","25.5913","85.088","PAT","141.237388"
"Mansingha","26.7807","84.8367","Bihar","Lok Nayak Jayaprakash Airport","25.5913","85.088","PAT","134.6112349"
"Sonapur","25.3561","86.2082","Bihar","Lok Nayak Jayaprakash Airport","25.5913","85.088","PAT","115.451868"
"Sahar","26.5408","85.859","Bihar","Lok Nayak Jayaprakash Airport","25.5913","85.088","PAT","130.6811119"
"Bhit Bhagwanpur","26.116","86.355","Bihar","Lok Nayak Jayaprakash Airport","25.5913","85.088","PAT","139.5623025"
"Jurawanpur Karari","25.5273","85.4182","Bihar","Lok Nayak Jayaprakash Airport","25.5913","85.088","PAT","33.87929507"
"Dewangarh","24.8637","85.8584","Bihar","Lok Nayak Jayaprakash Airport","25.5913","85.088","PAT","112.0306834"
"Sundarpur","26.3037","84.8581","Bihar","Lok Nayak Jayaprakash Airport","25.5913","85.088","PAT","82.48295734"
"Belo","25.8747","86.8855","Bihar","Lok Nayak Jayaprakash Airport","25.5913","85.088","PAT","182.7861117"
"Meghauna","25.6904","86.3809","Bihar","Lok Nayak Jayaprakash Airport","25.5913","85.088","PAT","130.0737211"
"Pipra Latif","25.3579","86.7174","Bihar","Lok Nayak Jayaprakash Airport","25.5913","85.088","PAT","165.6108507"
"Patilar","27.0361","84.2106","Bihar","Lok Nayak Jayaprakash Airport","25.5913","85.088","PAT","182.9129593"
"Asthanwan","25.2215","85.6262","Bihar","Lok Nayak Jayaprakash Airport","25.5913","85.088","PAT","67.91920946"
"Turhapatti","26.8511","84.4522","Bihar","Lok Nayak Jayaprakash Airport","25.5913","85.088","PAT","153.7708873"
"Phulaut","25.5114","86.9375","Bihar","Lok Nayak Jayaprakash Airport","25.5913","85.088","PAT","185.7528361"
"Jamalpur","25.9549","86.36","Bihar","Lok Nayak Jayaprakash Airport","25.5913","85.088","PAT","133.6319686"
"Raspur Patasia","25.544","85.7247","Bihar","Lok Nayak Jayaprakash Airport","25.5913","85.088","PAT","64.08116984"
"Semra","26.6523","85.0872","Bihar","Lok Nayak Jayaprakash Airport","25.5913","85.088","PAT","117.9778442"
"Israin Kalan","25.9844","87.0372","Bihar","Lok Nayak Jayaprakash Airport","25.5913","85.088","PAT","199.9889794"
"Basarh","25.9808","85.1285","Bihar","Lok Nayak Jayaprakash Airport","25.5913","85.088","PAT","43.49983306"
"Belari","25.9655","86.9161","Bihar","Lok Nayak Jayaprakash Airport","25.5913","85.088","PAT","187.7136998"
"Kalikapur","26.4956","86.089","Bihar","Lok Nayak Jayaprakash Airport","25.5913","85.088","PAT","141.8148976"
"Sahpur","25.7035","85.1483","Bihar","Lok Nayak Jayaprakash Airport","25.5913","85.088","PAT","13.86317208"
"Ratan","25.4349","86.6432","Bihar","Lok Nayak Jayaprakash Airport","25.5913","85.088","PAT","157.0323594"
"Marui","24.8639","85.6338","Bihar","Lok Nayak Jayaprakash Airport","25.5913","85.088","PAT","97.75588179"
"Hathiaundha","25.7223","86.9972","Bihar","Lok Nayak Jayaprakash Airport","25.5913","85.088","PAT","191.9139008"
"Lakhaura","26.7522","84.9647","Bihar","Lok Nayak Jayaprakash Airport","25.5913","85.088","PAT","129.671281"
"Telua","26.6396","84.5108","Bihar","Lok Nayak Jayaprakash Airport","25.5913","85.088","PAT","130.0327793"
"Gangapur","25.5136","86.8957","Bihar","Lok Nayak Jayaprakash Airport","25.5913","85.088","PAT","181.5510042"
"Chautham","25.5439","86.6567","Bihar","Lok Nayak Jayaprakash Airport","25.5913","85.088","PAT","157.4379046"
"Babhani Bholwa","26.0876","86.7456","Bihar","Lok Nayak Jayaprakash Airport","25.5913","85.088","PAT","174.8251777"
"Bhatranha","25.9846","86.6348","Bihar","Lok Nayak Jayaprakash Airport","25.5913","85.088","PAT","160.9223451"
"Tabhka Khas","25.6518","85.9426","Bihar","Lok Nayak Jayaprakash Airport","25.5913","85.088","PAT","85.94668774"
"Jadia","26.0937","86.9852","Bihar","Lok Nayak Jayaprakash Airport","25.5913","85.088","PAT","197.9077063"
"Bina","26.0792","86.6326","Bihar","Lok Nayak Jayaprakash Airport","25.5913","85.088","PAT","163.8272186"
"Rajni","25.8132","86.9772","Bihar","Lok Nayak Jayaprakash Airport","25.5913","85.088","PAT","190.8848012"
"Ekma","25.967","84.5383","Bihar","Lok Nayak Jayaprakash Airport","25.5913","85.088","PAT","69.09903415"
"Shamsa","25.623","85.931","Bihar","Lok Nayak Jayaprakash Airport","25.5913","85.088","PAT","84.60362891"
"Saidpur","25.5436","86.564","Bihar","Lok Nayak Jayaprakash Airport","25.5913","85.088","PAT","148.1465737"
"Barajor","24.7992","86.3731","Bihar","Lok Nayak Jayaprakash Airport","25.5913","85.088","PAT","156.4481368"
"Pursa","26.3019","86.4778","Bihar","Lok Nayak Jayaprakash Airport","25.5913","85.088","PAT","159.8533586"
"Jhandapur","25.3995","86.9479","Bihar","Lok Nayak Jayaprakash Airport","25.5913","85.088","PAT","187.8848189"
"Champapur","26.8881","84.834","Bihar","Lok Nayak Jayaprakash Airport","25.5913","85.088","PAT","146.405805"
"Chailaha","26.6738","84.8801","Bihar","Lok Nayak Jayaprakash Airport","25.5913","85.088","PAT","122.1445731"
"Madhuban","26.4386","85.1357","Bihar","Lok Nayak Jayaprakash Airport","25.5913","85.088","PAT","94.33595748"
"Benipati","26.4442","85.9083","Bihar","Lok Nayak Jayaprakash Airport","25.5913","85.088","PAT","125.3516551"
"Kamrawan","25.6956","85.838","Bihar","Lok Nayak Jayaprakash Airport","25.5913","85.088","PAT","76.07120611"
"Hasanpur Juned","25.5915","85.5238","Bihar","Lok Nayak Jayaprakash Airport","25.5913","85.088","PAT","43.70480438"
"Ijra","26.3119","86.0037","Bihar","Lok Nayak Jayaprakash Airport","25.5913","85.088","PAT","121.664498"
"Garhpura","25.6638","86.1818","Bihar","Lok Nayak Jayaprakash Airport","25.5913","85.088","PAT","109.9557108"
"Sahit","25.5888","85.7948","Bihar","Lok Nayak Jayaprakash Airport","25.5913","85.088","PAT","70.88369716"
"Chhapia","26.0831","84.8447","Bihar","Lok Nayak Jayaprakash Airport","25.5913","85.088","PAT","59.86155116"
"Rasulpur Dhuria","25.5693","87.0375","Bihar","Lok Nayak Jayaprakash Airport","25.5913","85.088","PAT","195.540039"
"Sinha","25.6902","84.6291","Bihar","Lok Nayak Jayaprakash Airport","25.5913","85.088","PAT","47.29861255"
"Dinmanpur","25.9112","85.9288","Bihar","Lok Nayak Jayaprakash Airport","25.5913","85.088","PAT","91.41233948"
"Baligaon","25.4196","84.4951","Bihar","Lok Nayak Jayaprakash Airport","25.5913","85.088","PAT","62.49035175"
"Jitwarpur Nizamat","25.8489","85.8006","Bihar","Lok Nayak Jayaprakash Airport","25.5913","85.088","PAT","76.91911316"
"Darpa","26.84","84.9774","Bihar","Lok Nayak Jayaprakash Airport","25.5913","85.088","PAT","139.2867396"
"Siswa","26.6214","84.6739","Bihar","Lok Nayak Jayaprakash Airport","25.5913","85.088","PAT","121.7761716"
"Kusaha","26.2077","86.9587","Bihar","Lok Nayak Jayaprakash Airport","25.5913","85.088","PAT","199.27494"
"Pakarya Harsidhi","26.6526","84.7198","Bihar","Lok Nayak Jayaprakash Airport","25.5913","85.088","PAT","123.6037069"
"Surajpura","25.2576","86.2283","Bihar","Lok Nayak Jayaprakash Airport","25.5913","85.088","PAT","120.3766576"
"Lakho","25.4113","86.1792","Bihar","Lok Nayak Jayaprakash Airport","25.5913","85.088","PAT","111.3284099"
"Babhangawan","25.3674","86.9501","Bihar","Lok Nayak Jayaprakash Airport","25.5913","85.088","PAT","188.5669313"
"Nawada","25.5431","85.924","Bihar","Lok Nayak Jayaprakash Airport","25.5913","85.088","PAT","84.02735224"
"Roh","24.8905","85.675","Bihar","Lok Nayak Jayaprakash Airport","25.5913","85.088","PAT","97.76478227"
"Lagunia Surajkanth","25.8304","85.7887","Bihar","Lok Nayak Jayaprakash Airport","25.5913","85.088","PAT","75.06611463"
"Srinagar","26.783","84.3018","Bihar","Lok Nayak Jayaprakash Airport","25.5913","85.088","PAT","153.9899187"
"Narahia","26.3681","86.5434","Bihar","Lok Nayak Jayaprakash Airport","25.5913","85.088","PAT","169.187574"
"Kolwara","25.3538","86.77","Bihar","Lok Nayak Jayaprakash Airport","25.5913","85.088","PAT","170.9004066"
"Hargawan","25.1428","85.5652","Bihar","Lok Nayak Jayaprakash Airport","25.5913","85.088","PAT","69.18028146"
"Puraini","25.5968","86.9892","Bihar","Lok Nayak Jayaprakash Airport","25.5913","85.088","PAT","190.6596512"
"Narhan","25.6941","86.0074","Bihar","Lok Nayak Jayaprakash Airport","25.5913","85.088","PAT","92.86971122"
"Salimpur","25.248","86.2347","Bihar","Lok Nayak Jayaprakash Airport","25.5913","85.088","PAT","121.324216"
"Bariariya","26.5105","84.7165","Bihar","Lok Nayak Jayaprakash Airport","25.5913","85.088","PAT","108.7392192"
"Raje","26.2216","86.1454","Bihar","Lok Nayak Jayaprakash Airport","25.5913","85.088","PAT","126.8755873"
"Saren","25.1149","84.9744","Bihar","Lok Nayak Jayaprakash Airport","25.5913","85.088","PAT","54.18921068"
"Panr","25.6884","85.798","Bihar","Lok Nayak Jayaprakash Airport","25.5913","85.088","PAT","71.98867739"
"Jitwarpur Kumhra","25.7852","85.7044","Bihar","Lok Nayak Jayaprakash Airport","25.5913","85.088","PAT","65.42125125"
"Phulwar","26.8148","84.843","Bihar","Lok Nayak Jayaprakash Airport","25.5913","85.088","PAT","138.2252239"
"Eraura","24.613","84.4555","Bihar","Lok Nayak Jayaprakash Airport","25.5913","85.088","PAT","126.0537394"
"Bela","25.8103","85.0157","Bihar","Lok Nayak Jayaprakash Airport","25.5913","85.088","PAT","25.40632017"
"Sasan","25.6883","86.1907","Bihar","Lok Nayak Jayaprakash Airport","25.5913","85.088","PAT","111.0656711"
"Amari","25.7179","86.0839","Bihar","Lok Nayak Jayaprakash Airport","25.5913","85.088","PAT","100.8098716"
"Keal","25.1218","84.6324","Bihar","Lok Nayak Jayaprakash Airport","25.5913","85.088","PAT","69.43512672"
"Pali","26.0576","86.3097","Bihar","Lok Nayak Jayaprakash Airport","25.5913","85.088","PAT","132.8180969"
"Sutihar","25.8482","84.9712","Bihar","Lok Nayak Jayaprakash Airport","25.5913","85.088","PAT","30.8694779"
"Chaugain","25.4801","84.2328","Bihar","Lok Nayak Jayaprakash Airport","25.5913","85.088","PAT","86.69100221"
"Belwara","25.7443","86.4755","Bihar","Lok Nayak Jayaprakash Airport","25.5913","85.088","PAT","140.0945421"
"Amaha","26.1284","86.7998","Bihar","Lok Nayak Jayaprakash Airport","25.5913","85.088","PAT","181.3944775"
"Belsandi Tara","25.7722","85.9608","Bihar","Lok Nayak Jayaprakash Airport","25.5913","85.088","PAT","89.74681919"
"Dumri","26.9873","84.0752","Bihar","Lok Nayak Jayaprakash Airport","25.5913","85.088","PAT","185.1750215"
"Kishanpur Ratwara","25.4822","86.8511","Bihar","Lok Nayak Jayaprakash Airport","25.5913","85.088","PAT","177.309818"
"Parihara","25.5378","86.2728","Bihar","Lok Nayak Jayaprakash Airport","25.5913","85.088","PAT","118.9943905"
"Kauriya","26.1517","84.6948","Bihar","Lok Nayak Jayaprakash Airport","25.5913","85.088","PAT","73.69252766"
"Madanpur","25.867","86.7875","Bihar","Lok Nayak Jayaprakash Airport","25.5913","85.088","PAT","172.9768332"
"Simri","26.1639","85.7617","Bihar","Lok Nayak Jayaprakash Airport","25.5913","85.088","PAT","92.71810219"
"Nawada","26.0881","86.153","Bihar","Lok Nayak Jayaprakash Airport","25.5913","85.088","PAT","120.0468759"
"Gopalpur","26.1317","84.3594","Bihar","Lok Nayak Jayaprakash Airport","25.5913","85.088","PAT","94.4750136"
"Darihat","24.9702","84.2319","Bihar","Lok Nayak Jayaprakash Airport","25.5913","85.088","PAT","110.3576174"
"Malepur","24.974","86.2555","Bihar","Lok Nayak Jayaprakash Airport","25.5913","85.088","PAT","135.9795275"
"Sher Chakla","25.3848","86.6952","Bihar","Lok Nayak Jayaprakash Airport","25.5913","85.088","PAT","162.9441508"
"Kaleyanpur","26.4297","84.9327","Bihar","Lok Nayak Jayaprakash Airport","25.5913","85.088","PAT","94.50874182"
"Chak Husaini","25.5169","86.5566","Bihar","Lok Nayak Jayaprakash Airport","25.5913","85.088","PAT","147.557841"
"Balhapur","25.3511","86.2122","Bihar","Lok Nayak Jayaprakash Airport","25.5913","85.088","PAT","115.9720616"
"Mahuwa Singhrai","25.8168","85.3853","Bihar","Lok Nayak Jayaprakash Airport","25.5913","85.088","PAT","38.93574758"
"Babhanganwa","26.1398","86.8464","Bihar","Lok Nayak Jayaprakash Airport","25.5913","85.088","PAT","186.2067896"
"Karpi","25.1612","84.7299","Bihar","Lok Nayak Jayaprakash Airport","25.5913","85.088","PAT","59.84605983"
"Mohania","25.1692","83.6192","Bihar","Lok Nayak Jayaprakash Airport","25.5913","85.088","PAT","154.84315"
"Sisai","26.1899","84.5643","Bihar","Lok Nayak Jayaprakash Airport","25.5913","85.088","PAT","84.70450332"
"Patalia","25.66","86.0066","Bihar","Lok Nayak Jayaprakash Airport","25.5913","85.088","PAT","92.41278862"
"Rahui","25.2728","85.5555","Bihar","Lok Nayak Jayaprakash Airport","25.5913","85.088","PAT","58.80641385"
"Rukhae","25.3269","85.3725","Bihar","Lok Nayak Jayaprakash Airport","25.5913","85.088","PAT","40.99019868"
"Beur","25.569","85.0944","Bihar","Lok Nayak Jayaprakash Airport","25.5913","85.088","PAT","2.561381595"
"Sukhasan","25.9644","86.7732","Bihar","Lok Nayak Jayaprakash Airport","25.5913","85.088","PAT","173.7620078"
"Afzala","25.9319","86.2293","Bihar","Lok Nayak Jayaprakash Airport","25.5913","85.088","PAT","120.4044423"
"Jamira","25.5535","84.7063","Bihar","Lok Nayak Jayaprakash Airport","25.5913","85.088","PAT","38.51541832"
"Kesariya","26.3342","84.8548","Bihar","Lok Nayak Jayaprakash Airport","25.5913","85.088","PAT","85.83346891"
"Bhakua","26.5167","86.1974","Bihar","Lok Nayak Jayaprakash Airport","25.5913","85.088","PAT","151.2275475"
"Kulharia","25.3382","86.7612","Bihar","Lok Nayak Jayaprakash Airport","25.5913","85.088","PAT","170.3164573"
"Ghordaur","25.7089","86.612","Bihar","Lok Nayak Jayaprakash Airport","25.5913","85.088","PAT","153.319193"
"Basaon","26.2082","84.6174","Bihar","Lok Nayak Jayaprakash Airport","25.5913","85.088","PAT","83.19380525"
"Pariharpur","26.4026","86.1256","Bihar","Lok Nayak Jayaprakash Airport","25.5913","85.088","PAT","137.4481325"
"Gaundra","26.3683","85.0036","Bihar","Lok Nayak Jayaprakash Airport","25.5913","85.088","PAT","86.80936693"
"Abhwar","26.174","86.6324","Bihar","Lok Nayak Jayaprakash Airport","25.5913","85.088","PAT","167.5374649"
"Telmar","25.4237","85.4358","Bihar","Lok Nayak Jayaprakash Airport","25.5913","85.088","PAT","39.56766729"
"Barka Parbatta","25.3396","87.0576","Bihar","Lok Nayak Jayaprakash Airport","25.5913","85.088","PAT","199.7004795"
"Rajpur","25.0768","84.2055","Bihar","Lok Nayak Jayaprakash Airport","25.5913","85.088","PAT","105.5422125"
"Pataili","25.7872","85.8316","Bihar","Lok Nayak Jayaprakash Airport","25.5913","85.088","PAT","77.630523"
"Bachhauta","25.5242","86.4606","Bihar","Lok Nayak Jayaprakash Airport","25.5913","85.088","PAT","137.8932026"
"Dumaria","26.7652","84.3964","Bihar","Lok Nayak Jayaprakash Airport","25.5913","85.088","PAT","147.6522753"
"Goh","24.9845","84.6498","Bihar","Lok Nayak Jayaprakash Airport","25.5913","85.088","PAT","80.58256027"
"Fatehpur","25.5089","85.1939","Bihar","Lok Nayak Jayaprakash Airport","25.5913","85.088","PAT","14.02925278"
"Raghunathpur","25.5615","84.305","Bihar","Lok Nayak Jayaprakash Airport","25.5913","85.088","PAT","78.6038633"
"Sumbha","25.5789","86.3608","Bihar","Lok Nayak Jayaprakash Airport","25.5913","85.088","PAT","127.658223"
"Chhapra","26.4005","85.3721","Bihar","Lok Nayak Jayaprakash Airport","25.5913","85.088","PAT","94.35265282"
"Dharphari","26.1501","84.9564","Bihar","Lok Nayak Jayaprakash Airport","25.5913","85.088","PAT","63.51541983"
"Mathurapur","24.9073","85.9836","Bihar","Lok Nayak Jayaprakash Airport","25.5913","85.088","PAT","117.8874319"
"Manikpur","25.1339","86.6777","Bihar","Lok Nayak Jayaprakash Airport","25.5913","85.088","PAT","167.6293679"
"Kaua Kol","24.8447","85.8867","Bihar","Lok Nayak Jayaprakash Airport","25.5913","85.088","PAT","115.5313363"
"Maqsuda","26.241","86.0585","Bihar","Lok Nayak Jayaprakash Airport","25.5913","85.088","PAT","120.9956823"
"Shitab Diara","25.7563","84.6133","Bihar","Lok Nayak Jayaprakash Airport","25.5913","85.088","PAT","50.98838203"
"Chandhaus","25.2977","84.8595","Bihar","Lok Nayak Jayaprakash Airport","25.5913","85.088","PAT","39.90260718"
"Udaipur Bithwar","26.2872","86.1578","Bihar","Lok Nayak Jayaprakash Airport","25.5913","85.088","PAT","132.0248292"
"Ekwari","25.2975","84.4994","Bihar","Lok Nayak Jayaprakash Airport","25.5913","85.088","PAT","67.52901879"
"Paina","25.5406","86.9939","Bihar","Lok Nayak Jayaprakash Airport","25.5913","85.088","PAT","191.257969"
"Rasauli","26.127","84.8378","Bihar","Lok Nayak Jayaprakash Airport","25.5913","85.088","PAT","64.61421464"
"Dayalpur Sapha","25.7122","85.3188","Bihar","Lok Nayak Jayaprakash Airport","25.5913","85.088","PAT","26.75682091"
"Baraon","25.4551","84.2661","Bihar","Lok Nayak Jayaprakash Airport","25.5913","85.088","PAT","83.85119017"
"Neuri","26.0076","86.1841","Bihar","Lok Nayak Jayaprakash Airport","25.5913","85.088","PAT","119.0956233"
"Fatehpur","25.2463","87.038","Bihar","Lok Nayak Jayaprakash Airport","25.5913","85.088","PAT","199.5595084"
"Barah","25.3885","85.4912","Bihar","Lok Nayak Jayaprakash Airport","25.5913","85.088","PAT","46.32830602"
"Chandauli","25.8972","85.7161","Bihar","Lok Nayak Jayaprakash Airport","25.5913","85.088","PAT","71.51594917"
"Amauna","25.0531","84.5169","Bihar","Lok Nayak Jayaprakash Airport","25.5913","85.088","PAT","82.92382166"
"Lohiyar Ujain","26.6284","84.7452","Bihar","Lok Nayak Jayaprakash Airport","25.5913","85.088","PAT","120.2923438"
"Sitalpur","26.405","85.007","Bihar","Lok Nayak Jayaprakash Airport","25.5913","85.088","PAT","90.84073473"
"Barwat Pasrain","26.7925","84.5469","Bihar","Lok Nayak Jayaprakash Airport","25.5913","85.088","PAT","144.0657"
"Phulwaria","25.9395","85.0035","Bihar","Lok Nayak Jayaprakash Airport","25.5913","85.088","PAT","39.63195083"
"Jhaua","25.625","84.5161","Bihar","Lok Nayak Jayaprakash Airport","25.5913","85.088","PAT","57.46802311"
"Jaitpur","25.9132","84.573","Bihar","Lok Nayak Jayaprakash Airport","25.5913","85.088","PAT","62.78092996"
"Sakhmohan","25.6325","85.9859","Bihar","Lok Nayak Jayaprakash Airport","25.5913","85.088","PAT","90.14803976"
"Rampur Shamchand","25.5664","85.3289","Bihar","Lok Nayak Jayaprakash Airport","25.5913","85.088","PAT","24.31965002"
"Bairia","25.5563","85.1835","Bihar","Lok Nayak Jayaprakash Airport","25.5913","85.088","PAT","10.33919405"
"Saghar Sultanpur","26.1583","84.757","Bihar","Lok Nayak Jayaprakash Airport","25.5913","85.088","PAT","71.21536304"
"Mansapur","26.5262","86.4101","Bihar","Lok Nayak Jayaprakash Airport","25.5913","85.088","PAT","168.0701344"
"Dhutauli","25.5274","86.625","Bihar","Lok Nayak Jayaprakash Airport","25.5913","85.088","PAT","154.3442492"
"Daparkha","26.1293","86.9004","Bihar","Lok Nayak Jayaprakash Airport","25.5913","85.088","PAT","190.9584709"
"Rahika","26.3803","86.0204","Bihar","Lok Nayak Jayaprakash Airport","25.5913","85.088","PAT","127.9936385"
"Bihariganj","25.7341","86.9884","Bihar","Lok Nayak Jayaprakash Airport","25.5913","85.088","PAT","191.1295649"
"Sugauna","26.4077","86.2174","Bihar","Lok Nayak Jayaprakash Airport","25.5913","85.088","PAT","144.8484281"
"Sattar","25.955","86.5828","Bihar","Lok Nayak Jayaprakash Airport","25.5913","85.088","PAT","155.0456234"
"Barhauna","25.6043","85.7288","Bihar","Lok Nayak Jayaprakash Airport","25.5913","85.088","PAT","64.2762884"
"Salempur","26.4588","84.6517","Bihar","Lok Nayak Jayaprakash Airport","25.5913","85.088","PAT","105.8551324"
"Bela Simri","25.5295","86.3079","Bihar","Lok Nayak Jayaprakash Airport","25.5913","85.088","PAT","122.5634334"
"Bazidpur","26.1536","86.1511","Bihar","Lok Nayak Jayaprakash Airport","25.5913","85.088","PAT","123.3781932"
"Kurwa Mathia","26.8572","84.5058","Bihar","Lok Nayak Jayaprakash Airport","25.5913","85.088","PAT","152.2702504"
"Gaura","24.9643","86.3739","Bihar","Lok Nayak Jayaprakash Airport","25.5913","85.088","PAT","146.8925059"
"Rampurwa","26.7544","84.7114","Bihar","Lok Nayak Jayaprakash Airport","25.5913","85.088","PAT","134.6803983"
"Jasauli","26.4996","84.8171","Bihar","Lok Nayak Jayaprakash Airport","25.5913","85.088","PAT","104.5613709"
"Harpur Bochaha","25.5919","85.7517","Bihar","Lok Nayak Jayaprakash Airport","25.5913","85.088","PAT","66.55994442"
"Bariyarpur","26.6347","84.9245","Bihar","Lok Nayak Jayaprakash Airport","25.5913","85.088","PAT","117.1635808"
"Maheswa","25.9718","86.855","Bihar","Lok Nayak Jayaprakash Airport","25.5913","85.088","PAT","181.9102833"
"Nawada Gobindganj","26.4868","84.6561","Bihar","Lok Nayak Jayaprakash Airport","25.5913","85.088","PAT","108.5222283"
"Dharampur Bande","25.6609","85.5742","Bihar","Lok Nayak Jayaprakash Airport","25.5913","85.088","PAT","49.35561242"
"Bahadurpur","25.4522","85.6303","Bihar","Lok Nayak Jayaprakash Airport","25.5913","85.088","PAT","56.5723608"
"Majarhat","25.9654","86.8126","Bihar","Lok Nayak Jayaprakash Airport","25.5913","85.088","PAT","177.6207228"
"Sonbarsa","25.7069","86.7379","Bihar","Lok Nayak Jayaprakash Airport","25.5913","85.088","PAT","165.8803302"
"Mahtha","26.5988","86.3158","Bihar","Lok Nayak Jayaprakash Airport","25.5913","85.088","PAT","166.0799321"
"Pirnagar","25.5982","86.7178","Bihar","Lok Nayak Jayaprakash Airport","25.5913","85.088","PAT","163.4429894"
"Bari","25.8769","86.1918","Bihar","Lok Nayak Jayaprakash Airport","25.5913","85.088","PAT","115.0337097"
"Nirakpurpali","25.3244","84.8114","Bihar","Lok Nayak Jayaprakash Airport","25.5913","85.088","PAT","40.64425946"
"Samai","24.9788","85.5861","Bihar","Lok Nayak Jayaprakash Airport","25.5913","85.088","PAT","84.53696783"
"Alampur Gonpura","25.5404","85.0511","Bihar","Lok Nayak Jayaprakash Airport","25.5913","85.088","PAT","6.762664869"
"Tilari","25.004","85.252","Bihar","Lok Nayak Jayaprakash Airport","25.5913","85.088","PAT","67.35381298"
"Jalpura","25.4862","84.737","Bihar","Lok Nayak Jayaprakash Airport","25.5913","85.088","PAT","37.10447672"
"Simri","25.7523","86.6074","Bihar","Lok Nayak Jayaprakash Airport","25.5913","85.088","PAT","153.3204647"
"Garh Sisai","25.6253","85.7887","Bihar","Lok Nayak Jayaprakash Airport","25.5913","85.088","PAT","70.362317"
"Khagra","25.3511","87.0624","Bihar","Lok Nayak Jayaprakash Airport","25.5913","85.088","PAT","199.9934565"
"Nohsa","25.5653","85.0558","Bihar","Lok Nayak Jayaprakash Airport","25.5913","85.088","PAT","4.334562892"
"Pilich","25.2379","85.3483","Bihar","Lok Nayak Jayaprakash Airport","25.5913","85.088","PAT","47.19799983"
"Turki","26.0294","86.0666","Bihar","Lok Nayak Jayaprakash Airport","25.5913","85.088","PAT","109.4035205"
"Mahrail","26.2952","86.2763","Bihar","Lok Nayak Jayaprakash Airport","25.5913","85.088","PAT","142.2794179"
"Tola Khadda","26.7396","84.5014","Bihar","Lok Nayak Jayaprakash Airport","25.5913","85.088","PAT","140.4654639"
"Kewatgawan","25.8012","86.3229","Bihar","Lok Nayak Jayaprakash Airport","25.5913","85.088","PAT","125.9164097"
"Usmanpur","25.3487","86.9669","Bihar","Lok Nayak Jayaprakash Airport","25.5913","85.088","PAT","190.5364017"
"Dhanupra","25.6992","86.4716","Bihar","Lok Nayak Jayaprakash Airport","25.5913","85.088","PAT","139.2110796"
"Paithan Kawai","26.1755","86.0685","Bihar","Lok Nayak Jayaprakash Airport","25.5913","85.088","PAT","117.6485566"
"Kotwapatti Rampur","25.7153","84.8063","Bihar","Lok Nayak Jayaprakash Airport","25.5913","85.088","PAT","31.42271872"
"Bheja","26.1046","86.395","Bihar","Lok Nayak Jayaprakash Airport","25.5913","85.088","PAT","142.702157"
"Ahirauliya","26.5091","84.7999","Bihar","Lok Nayak Jayaprakash Airport","25.5913","85.088","PAT","106.035208"
"Bairia","26.7373","84.4371","Bihar","Lok Nayak Jayaprakash Airport","25.5913","85.088","PAT","143.0310188"
"Titara","26.2311","84.2444","Bihar","Lok Nayak Jayaprakash Airport","25.5913","85.088","PAT","110.3635012"
"Kamtaul","26.328","85.8238","Bihar","Lok Nayak Jayaprakash Airport","25.5913","85.088","PAT","110.0985094"
"Sher","26.3422","84.621","Bihar","Lok Nayak Jayaprakash Airport","25.5913","85.088","PAT","95.6615705"
"Arma","25.1966","86.2468","Bihar","Lok Nayak Jayaprakash Airport","25.5913","85.088","PAT","124.4013602"
"Dharhara","25.2543","86.403","Bihar","Lok Nayak Jayaprakash Airport","25.5913","85.088","PAT","137.2746416"
"Bandwar","25.5093","86.1595","Bihar","Lok Nayak Jayaprakash Airport","25.5913","85.088","PAT","107.8794904"
"Aphaur","25.8828","84.7595","Bihar","Lok Nayak Jayaprakash Airport","25.5913","85.088","PAT","46.187483"
"Desri","25.6691","85.4082","Bihar","Lok Nayak Jayaprakash Airport","25.5913","85.088","PAT","33.24651951"
"Dasraha Bhograjpur","25.5691","85.6441","Bihar","Lok Nayak Jayaprakash Airport","25.5913","85.088","PAT","55.82905313"
"Kotia","26.275","86.0532","Bihar","Lok Nayak Jayaprakash Airport","25.5913","85.088","PAT","122.8624333"
"Hasanpur","25.633","85.5728","Bihar","Lok Nayak Jayaprakash Airport","25.5913","85.088","PAT","48.83103479"
"Nawada","25.1021","86.6902","Bihar","Lok Nayak Jayaprakash Airport","25.5913","85.088","PAT","169.9452007"
"Hathwan","25.6672","86.3999","Bihar","Lok Nayak Jayaprakash Airport","25.5913","85.088","PAT","131.7940396"
"Dagmara","26.3953","86.7601","Bihar","Lok Nayak Jayaprakash Airport","25.5913","85.088","PAT","189.5280958"
"Mekra","25.4705","85.8406","Bihar","Lok Nayak Jayaprakash Airport","25.5913","85.088","PAT","76.69892563"
"Bhachhi Asli","26.0147","86.0444","Bihar","Lok Nayak Jayaprakash Airport","25.5913","85.088","PAT","106.6923137"
"Lauriya Nandangarh","26.9985","84.4085","Bihar","Lok Nayak Jayaprakash Airport","25.5913","85.088","PAT","170.5053847"
"Turki","26.0381","85.3577","Bihar","Lok Nayak Jayaprakash Airport","25.5913","85.088","PAT","56.54288581"
"Saraiya","25.6467","84.6312","Bihar","Lok Nayak Jayaprakash Airport","25.5913","85.088","PAT","46.21265413"
"Srinagar","25.9823","86.6662","Bihar","Lok Nayak Jayaprakash Airport","25.5913","85.088","PAT","163.8834373"
"Gajhara","26.5237","86.3715","Bihar","Lok Nayak Jayaprakash Airport","25.5913","85.088","PAT","164.8838473"
"Raghopur","25.318","87.008","Bihar","Lok Nayak Jayaprakash Airport","25.5913","85.088","PAT","195.1482309"
"Barsaun","25.6316","84.4372","Bihar","Lok Nayak Jayaprakash Airport","25.5913","85.088","PAT","65.4090685"
"Sonupur","25.8","86.0253","Bihar","Lok Nayak Jayaprakash Airport","25.5913","85.088","PAT","96.74073678"
"Narhat","24.7774","85.4237","Bihar","Lok Nayak Jayaprakash Airport","25.5913","85.088","PAT","96.60008448"
