City,City_latitude,City_longitude,State,Airport ,Airport _latitude,Airport _longitude,iata_code,Distance
Port Blair,11.6683,92.7378,Andaman and Nicobar Islands,Vir Savarkar International Airport,11.6412,92.7297,IXZ,3.139839322
Diglipur,13.2667,93,Andaman and Nicobar Islands,Vir Savarkar International Airport,11.6412,92.7297,IXZ,183.1144155
Rongat,12.4667,92.9333,Andaman and Nicobar Islands,Vir Savarkar International Airport,11.6412,92.7297,IXZ,94.42371876
Vishakhapatnam,17.7042,83.2978,Andhra Pradesh,Kadapa Airport,14.51,78.77278,CDP,599.7915603
Vijayawada,16.5193,80.6305,Andhra Pradesh,Kadapa Airport,14.51,78.77278,CDP,299.2169393
Guntur,16.3008,80.4428,Andhra Pradesh,Kadapa Airport,14.51,78.77278,CDP,267.7662191
Nellore,14.45,79.99,Andhra Pradesh,Kadapa Airport,14.51,78.77278,CDP,131.2188913
Kurnool,15.83,78.05,Andhra Pradesh,Kadapa Airport,14.51,78.77278,CDP,166.0125854
Kakinada,16.9661,82.255,Andhra Pradesh,Kadapa Airport,14.51,78.77278,CDP,462.0117407
Cuddapah,14.47,78.82,Andhra Pradesh,Kadapa Airport,14.51,78.77278,CDP,6.75470045
Rajahmundry,16.98,81.78,Andhra Pradesh,Kadapa Airport,14.51,78.77278,CDP,423.0761787
Tirupati,13.65,79.42,Andhra Pradesh,Kadapa Airport,14.51,78.77278,CDP,118.3948271
Anantapur,14.68,77.599,Andhra Pradesh,Kadapa Airport,14.51,78.77278,CDP,127.7132051
Tuni,17.35,82.55,Andhra Pradesh,Kadapa Airport,14.51,78.77278,CDP,512.6376681
Machilipatnam,16.17,81.13,Andhra Pradesh,Kadapa Airport,14.51,78.77278,CDP,312.9840425
Vizianagaram,18.1159,83.406,Andhra Pradesh,Kadapa Airport,14.51,78.77278,CDP,636.5028716
Ongole,15.506,80.049,Andhra Pradesh,Kadapa Airport,14.51,78.77278,CDP,176.2179751
Kodumur,15.6833,77.7833,Andhra Pradesh,Kadapa Airport,14.51,78.77278,CDP,168.2408886
Ellore,16.7117,81.1031,Andhra Pradesh,Kadapa Airport,14.51,78.77278,CDP,349.5805028
Nandyal,15.48,78.48,Andhra Pradesh,Kadapa Airport,14.51,78.77278,CDP,112.34977
Pulimaddi,15.5386,78.4613,Andhra Pradesh,Kadapa Airport,14.51,78.77278,CDP,119.1662648
Madanapalle,13.55,78.5,Andhra Pradesh,Kadapa Airport,14.51,78.77278,CDP,110.7288099
Chirala,15.8246,80.3521,Andhra Pradesh,Kadapa Airport,14.51,78.77278,CDP,223.8182142
Adoni,15.6279,77.2749,Andhra Pradesh,Kadapa Airport,14.51,78.77278,CDP,203.2650422
Alasandigutta,15.6244,77.2731,Andhra Pradesh,Kadapa Airport,14.51,78.77278,CDP,203.1814658
Tenali,16.239,80.645,Andhra Pradesh,Kadapa Airport,14.51,78.77278,CDP,277.9414051
Proddatur,14.75,78.55,Andhra Pradesh,Kadapa Airport,14.51,78.77278,CDP,35.87043125
Chittoor,13.216,79.098,Andhra Pradesh,Kadapa Airport,14.51,78.77278,CDP,148.1075941
Hindupur,13.83,77.49,Andhra Pradesh,Kadapa Airport,14.51,78.77278,CDP,157.6180853
Nuzvid,16.7881,80.8465,Andhra Pradesh,Kadapa Airport,14.51,78.77278,CDP,336.8394087
Bhimavaram,16.543,81.523,Andhra Pradesh,Kadapa Airport,14.51,78.77278,CDP,371.3614131
Chicacole,18.3,83.9,Andhra Pradesh,Kadapa Airport,14.51,78.77278,CDP,690.3334622
Guntakal,15.17,77.38,Andhra Pradesh,Kadapa Airport,14.51,78.77278,CDP,166.7240665
Dharmavaram,14.43,77.72,Andhra Pradesh,Kadapa Airport,14.51,78.77278,CDP,113.6987796
Jandrapeta,15.8246,80.3521,Andhra Pradesh,Kadapa Airport,14.51,78.77278,CDP,223.8182142
Gudivada,16.43,80.99,Andhra Pradesh,Kadapa Airport,14.51,78.77278,CDP,319.424447
Narasaraopet,16.236,80.0498,Andhra Pradesh,Kadapa Airport,14.51,78.77278,CDP,235.7516407
Tadpatri,14.92,78.02,Andhra Pradesh,Kadapa Airport,14.51,78.77278,CDP,92.9134262
Tadepallegudem,16.815,81.526,Andhra Pradesh,Kadapa Airport,14.51,78.77278,CDP,390.6013431
Amaravati,16.5131,80.5165,Andhra Pradesh,Kadapa Airport,14.51,78.77278,CDP,290.7090932
Chilakalurupet,16.0892,80.1672,Andhra Pradesh,Kadapa Airport,14.51,78.77278,CDP,230.6525112
Suramala,13.76,79.7,Andhra Pradesh,Kadapa Airport,14.51,78.77278,CDP,130.1954314
Kalluru,15.8344,78.0292,Andhra Pradesh,Kadapa Airport,14.51,78.77278,CDP,167.4968
Pedagadi,17.6615,83.2104,Andhra Pradesh,Kadapa Airport,14.51,78.77278,CDP,589.5028949
Emmiganur,15.7333,77.4833,Andhra Pradesh,Kadapa Airport,14.51,78.77278,CDP,194.0658895
Yalamakuru,15.5103,77.5249,Andhra Pradesh,Kadapa Airport,14.51,78.77278,CDP,174.1649433
Rayachoti,14.0583,78.7517,Andhra Pradesh,Kadapa Airport,14.51,78.77278,CDP,50.27808701
Kavali,14.913,79.9929,Andhra Pradesh,Kadapa Airport,14.51,78.77278,CDP,138.6633826
Kadiri,14.12,78.17,Andhra Pradesh,Kadapa Airport,14.51,78.77278,CDP,78.09251798
Anakapalle,17.6913,83.0039,Andhra Pradesh,Kadapa Airport,14.51,78.77278,CDP,573.9241688
Chinnachauku,14.4732,78.8451,Andhra Pradesh,Kadapa Airport,14.51,78.77278,CDP,8.795591025
Tanuku,16.7566,81.677,Andhra Pradesh,Kadapa Airport,14.51,78.77278,CDP,398.8758942
Yanam,16.7333,82.2167,Andhra Pradesh,Kadapa Airport,14.51,78.77278,CDP,443.9679099
Gangammapeta,18.498,83.9642,Andhra Pradesh,Kadapa Airport,14.51,78.77278,CDP,709.0886511
Gudur,14.1473,79.8477,Andhra Pradesh,Kadapa Airport,14.51,78.77278,CDP,122.6288344
Mangalagiri,16.43,80.55,Andhra Pradesh,Kadapa Airport,14.51,78.77278,CDP,286.0939419
Rayadrug,14.6997,76.8524,Andhra Pradesh,Kadapa Airport,14.51,78.77278,CDP,207.7098017
Markapur,15.73,79.26,Andhra Pradesh,Kadapa Airport,14.51,78.77278,CDP,145.3901578
Bapatla,15.9044,80.4675,Andhra Pradesh,Kadapa Airport,14.51,78.77278,CDP,238.9691069
Badvel,14.75,79.05,Andhra Pradesh,Kadapa Airport,14.51,78.77278,CDP,40.02215983
Piduguralla,16.4793,79.8863,Andhra Pradesh,Kadapa Airport,14.51,78.77278,CDP,249.3702301
Pulivendla,14.4194,78.225,Andhra Pradesh,Kadapa Airport,14.51,78.77278,CDP,59.83378464
Tadepalle,16.4803,80.6186,Andhra Pradesh,Kadapa Airport,14.51,78.77278,CDP,295.149955
Pamuru,15.097,79.409,Andhra Pradesh,Kadapa Airport,14.51,78.77278,CDP,94.54287837
Nagari,13.3214,79.5856,Andhra Pradesh,Kadapa Airport,14.51,78.77278,CDP,158.6314589
Razampeta,14.1954,79.159,Andhra Pradesh,Kadapa Airport,14.51,78.77278,CDP,54.35742332
Chandralapadu,16.715,80.2089,Andhra Pradesh,Kadapa Airport,14.51,78.77278,CDP,289.4227397
Ponnuru,16.0667,80.5667,Andhra Pradesh,Kadapa Airport,14.51,78.77278,CDP,258.8114856
Vinukonda,16.05,79.75,Andhra Pradesh,Kadapa Airport,14.51,78.77278,CDP,200.7728623
Dhone,15.396,77.872,Andhra Pradesh,Kadapa Airport,14.51,78.77278,CDP,138.0949564
Narasapur,16.4361,81.7016,Andhra Pradesh,Kadapa Airport,14.51,78.77278,CDP,379.9592529
Palasa,18.7731,84.4078,Andhra Pradesh,Kadapa Airport,14.51,78.77278,CDP,764.777121
Macherla,16.48,79.43,Andhra Pradesh,Kadapa Airport,14.51,78.77278,CDP,230.0945511
Kandukur,15.2167,79.9042,Andhra Pradesh,Kadapa Airport,14.51,78.77278,CDP,144.7792195
Samalkot,17.0531,82.1695,Andhra Pradesh,Kadapa Airport,14.51,78.77278,CDP,460.4764144
Bobbili,18.5667,83.3667,Andhra Pradesh,Kadapa Airport,14.51,78.77278,CDP,665.6831535
Sattenapalle,16.3962,80.1497,Andhra Pradesh,Kadapa Airport,14.51,78.77278,CDP,256.4449347
Mandapeta,16.87,81.93,Andhra Pradesh,Kadapa Airport,14.51,78.77278,CDP,427.8744371
Atchampeta,15.5412,78.9503,Andhra Pradesh,Kadapa Airport,14.51,78.77278,CDP,116.2382102
Bhimunipatnam,17.8846,83.4393,Andhra Pradesh,Kadapa Airport,14.51,78.77278,CDP,623.7009933
Pithapuram,17.1167,82.2667,Andhra Pradesh,Kadapa Airport,14.51,78.77278,CDP,472.9795122
Punganuru,13.3667,78.5833,Andhra Pradesh,Kadapa Airport,14.51,78.77278,CDP,128.7632008
Puttur,13.45,79.55,Andhra Pradesh,Kadapa Airport,14.51,78.77278,CDP,144.6558442
Palmaner,13.2,78.75,Andhra Pradesh,Kadapa Airport,14.51,78.77278,CDP,145.6861122
Parvatipuram,18.78,83.425,Andhra Pradesh,Kadapa Airport,14.51,78.77278,CDP,686.2421171
Mansala,15.9417,77.4281,Andhra Pradesh,Kadapa Airport,14.51,78.77278,CDP,214.8424318
Jaggayyapeta,16.892,80.0976,Andhra Pradesh,Kadapa Airport,14.51,78.77278,CDP,300.4371052
Amalapuram,16.5787,82.0061,Andhra Pradesh,Kadapa Airport,14.51,78.77278,CDP,415.7799514
Venkatagiri,13.9667,79.5833,Andhra Pradesh,Kadapa Airport,14.51,78.77278,CDP,106.2112396
Jiyyammavalasa,18.8186,83.5797,Andhra Pradesh,Kadapa Airport,14.51,78.77278,CDP,701.1162612
Zangareddigudem,17.1229,81.2953,Andhra Pradesh,Kadapa Airport,14.51,78.77278,CDP,396.5205425
Repalle,16.0172,80.8294,Andhra Pradesh,Kadapa Airport,14.51,78.77278,CDP,277.049212
Sulleru,18.5333,83.2167,Andhra Pradesh,Kadapa Airport,14.51,78.77278,CDP,651.4934772
Peddapuram,17.08,82.13,Andhra Pradesh,Kadapa Airport,14.51,78.77278,CDP,458.985433
Prattipadu,16.1878,80.3392,Andhra Pradesh,Kadapa Airport,14.51,78.77278,CDP,251.0288056
Jaggisettigudem,17.1167,81.3,Andhra Pradesh,Kadapa Airport,14.51,78.77278,CDP,396.3613455
Guntakal Junction,15.1711,77.3624,Andhra Pradesh,Kadapa Airport,14.51,78.77278,CDP,168.4777113
Gooty,15.121,77.634,Andhra Pradesh,Kadapa Airport,14.51,78.77278,CDP,140.0054181
Nandikotkur,15.867,78.267,Andhra Pradesh,Kadapa Airport,14.51,78.77278,CDP,160.3556241
Vuyyuru,16.3667,80.85,Andhra Pradesh,Kadapa Airport,14.51,78.77278,CDP,303.6243014
Jammalamadugu,14.85,78.38,Andhra Pradesh,Kadapa Airport,14.51,78.77278,CDP,56.69498637
Gollalagunta,17.1672,82.2847,Andhra Pradesh,Kadapa Airport,14.51,78.77278,CDP,477.9152215
Nayudupet,13.9,79.9,Andhra Pradesh,Kadapa Airport,14.51,78.77278,CDP,139.1579364
Alamuru,16.7833,81.9,Andhra Pradesh,Kadapa Airport,14.51,78.77278,CDP,419.5218365
Dowlaiswaram,16.9556,81.7931,Andhra Pradesh,Kadapa Airport,14.51,78.77278,CDP,422.4069283
Rapur,14.2015,79.5351,Andhra Pradesh,Kadapa Airport,14.51,78.77278,CDP,88.99601909
Nandigama,16.7833,80.3,Andhra Pradesh,Kadapa Airport,14.51,78.77278,CDP,301.0544813
Ananipalle,13.4902,79.2895,Andhra Pradesh,Kadapa Airport,14.51,78.77278,CDP,126.3595651
Janakammapeta,15.0125,79.8439,Andhra Pradesh,Kadapa Airport,14.51,78.77278,CDP,128.0100737
Addanki,15.8167,79.9833,Andhra Pradesh,Kadapa Airport,14.51,78.77278,CDP,194.9081911
Nidadavole,16.92,81.67,Andhra Pradesh,Kadapa Airport,14.51,78.77278,CDP,409.8352761
Ramachandrapuram,16.85,82.02,Andhra Pradesh,Kadapa Airport,14.51,78.77278,CDP,434.2011814
Alluru,15.1336,78.4975,Andhra Pradesh,Kadapa Airport,14.51,78.77278,CDP,75.39115703
Pileru,13.6549,78.9471,Andhra Pradesh,Kadapa Airport,14.51,78.77278,CDP,96.92370013
Vavveru,14.5594,79.8725,Andhra Pradesh,Kadapa Airport,14.51,78.77278,CDP,118.4969758
Erramvaripalem,15.8495,80.3861,Andhra Pradesh,Kadapa Airport,14.51,78.77278,CDP,228.3819357
Amudalavalasa,18.4167,83.9,Andhra Pradesh,Kadapa Airport,14.51,78.77278,CDP,698.1958821
Atmakur,15.8779,78.5884,Andhra Pradesh,Kadapa Airport,14.51,78.77278,CDP,153.3849025
Kovvur,17.017,81.731,Andhra Pradesh,Kadapa Airport,14.51,78.77278,CDP,421.7869028
Betamcherla,15.4667,78.1667,Andhra Pradesh,Kadapa Airport,14.51,78.77278,CDP,124.7183164
Penumur,13.3667,79.1833,Andhra Pradesh,Kadapa Airport,14.51,78.77278,CDP,134.6274872
Vetapalem,15.78,80.32,Andhra Pradesh,Kadapa Airport,14.51,78.77278,CDP,217.9893222
Buchireddipalem,14.538,79.875,Andhra Pradesh,Kadapa Airport,14.51,78.77278,CDP,118.6852699
Kanigiri,15.4,79.5167,Andhra Pradesh,Kadapa Airport,14.51,78.77278,CDP,127.2027677
Kadiyam,16.9167,81.8333,Andhra Pradesh,Kadapa Airport,14.51,78.77278,CDP,422.9829324
Dachepalle,16.6,79.7333,Andhra Pradesh,Kadapa Airport,14.51,78.77278,CDP,254.1536278
Ichchapuram,19.12,84.7,Andhra Pradesh,Kadapa Airport,14.51,78.77278,CDP,812.7086912
Vempalle,14.3667,78.4667,Andhra Pradesh,Kadapa Airport,14.51,78.77278,CDP,36.60922033
Uravakonda,14.95,77.27,Andhra Pradesh,Kadapa Airport,14.51,78.77278,CDP,168.852502
Giddalur,15.3764,78.9251,Andhra Pradesh,Kadapa Airport,14.51,78.77278,CDP,97.71922027
Allagadda,15.1322,78.5138,Andhra Pradesh,Kadapa Airport,14.51,78.77278,CDP,74.5764064
Madakalavaripalli,14.7475,79.0843,Andhra Pradesh,Kadapa Airport,14.51,78.77278,CDP,42.67059369
Tiruvur,17.1,80.6,Andhra Pradesh,Kadapa Airport,14.51,78.77278,CDP,348.0682872
Narsipatnam,17.665,82.614,Andhra Pradesh,Kadapa Airport,14.51,78.77278,CDP,539.8546273
Darsi,15.7667,79.6833,Andhra Pradesh,Kadapa Airport,14.51,78.77278,CDP,170.5224854
Kondapalle,16.6183,80.5411,Andhra Pradesh,Kadapa Airport,14.51,78.77278,CDP,301.3842438
Elesvaram,17.2833,82.1,Andhra Pradesh,Kadapa Airport,14.51,78.77278,CDP,470.8202691
Erraguntla,14.6333,78.5333,Andhra Pradesh,Kadapa Airport,14.51,78.77278,CDP,29.19229198
Kalyandrug,14.55,77.1,Andhra Pradesh,Kadapa Airport,14.51,78.77278,CDP,180.1100731
Kovur,14.5001,79.9859,Andhra Pradesh,Kadapa Airport,14.51,78.77278,CDP,130.5976448
Akividu,16.5823,81.3811,Andhra Pradesh,Kadapa Airport,14.51,78.77278,CDP,362.1634045
Podili,15.604,79.608,Andhra Pradesh,Kadapa Airport,14.51,78.77278,CDP,151.1321172
Tummapala,17.7166,82.9965,Andhra Pradesh,Kadapa Airport,14.51,78.77278,CDP,575.0185724
Tekkali,18.6057,84.2355,Andhra Pradesh,Kadapa Airport,14.51,78.77278,CDP,739.0576261
Pedana,16.2667,81.1667,Andhra Pradesh,Kadapa Airport,14.51,78.77278,CDP,322.5177649
Chimakurti,15.5149,80.0368,Andhra Pradesh,Kadapa Airport,14.51,78.77278,CDP,175.8257864
Kaluvaya,14.5,79.4167,Andhra Pradesh,Kadapa Airport,14.51,78.77278,CDP,69.32731813
Sarpavaram,17.0102,82.225,Andhra Pradesh,Kadapa Airport,14.51,78.77278,CDP,462.3249693
Ibrahimpatnam,16.583,80.5143,Andhra Pradesh,Kadapa Airport,14.51,78.77278,CDP,296.5374904
Atmakur,14.6167,79.6167,Andhra Pradesh,Kadapa Airport,14.51,78.77278,CDP,91.59616539
Pattikonda,15.4,77.5167,Andhra Pradesh,Kadapa Airport,14.51,78.77278,CDP,167.3373735
Nalakadoddi,15.4,77.5167,Andhra Pradesh,Kadapa Airport,14.51,78.77278,CDP,167.3373735
Ramanayyapeta,17.3203,82.1014,Andhra Pradesh,Kadapa Airport,14.51,78.77278,CDP,473.612172
Srungavarapukota,18.1167,83.1667,Andhra Pradesh,Kadapa Airport,14.51,78.77278,CDP,616.9412119
Tanguturu,15.35,80.05,Andhra Pradesh,Kadapa Airport,14.51,78.77278,CDP,165.9962714
Suluru,13.7,80.018,Andhra Pradesh,Kadapa Airport,14.51,78.77278,CDP,161.6941236
Penukonda,14.085,77.596,Andhra Pradesh,Kadapa Airport,14.51,78.77278,CDP,135.3187851
Parimpudi,17.1171,81.4342,Andhra Pradesh,Kadapa Airport,14.51,78.77278,CDP,406.3202712
Payakaraopeta,17.3627,82.5572,Andhra Pradesh,Kadapa Airport,14.51,78.77278,CDP,514.1038815
Pamidi,14.95,77.5833,Andhra Pradesh,Kadapa Airport,14.51,78.77278,CDP,136.9540723
Mamidalapadu,15.831,78.05,Andhra Pradesh,Kadapa Airport,14.51,78.77278,CDP,166.1108175
Narasannapeta,18.4167,84.05,Andhra Pradesh,Kadapa Airport,14.51,78.77278,CDP,710.7837737
Buddayyakota,13.8196,78.1729,Andhra Pradesh,Kadapa Airport,14.51,78.77278,CDP,100.3809731
Kottakota,13.6592,78.2467,Andhra Pradesh,Kadapa Airport,14.51,78.77278,CDP,110.314385
Guruzala,16.58,79.57,Andhra Pradesh,Kadapa Airport,14.51,78.77278,CDP,245.5050321
Guduru,15.775,77.807,Andhra Pradesh,Kadapa Airport,14.51,78.77278,CDP,174.7305602
Renigunta,13.65,79.52,Andhra Pradesh,Kadapa Airport,14.51,78.77278,CDP,125.0575296
Chintalapudi,17.0417,80.5901,Andhra Pradesh,Kadapa Airport,14.51,78.77278,CDP,342.1372819
Poranki,16.4743,80.7128,Andhra Pradesh,Kadapa Airport,14.51,78.77278,CDP,301.5245662
Attili,16.7,81.6,Andhra Pradesh,Kadapa Airport,14.51,78.77278,CDP,388.540585
Vodurivandlagudem,16.4286,81.133,Andhra Pradesh,Kadapa Airport,14.51,78.77278,CDP,330.8814072
Maduru,14.7616,78.6171,Andhra Pradesh,Kadapa Airport,14.51,78.77278,CDP,32.6071296
Pata Kalidindi,16.5014,81.2908,Andhra Pradesh,Kadapa Airport,14.51,78.77278,CDP,349.0204253
Gorantla,13.9892,77.7703,Andhra Pradesh,Kadapa Airport,14.51,78.77278,CDP,122.5820341
Kottapeta,16.7167,81.9,Andhra Pradesh,Kadapa Airport,14.51,78.77278,CDP,415.1469501
Aklvidu,16.6,81.3833,Andhra Pradesh,Kadapa Airport,14.51,78.77278,CDP,363.5905393
Vinnamala,13.9074,79.9086,Andhra Pradesh,Kadapa Airport,14.51,78.77278,CDP,139.5694786
Singarayakonda,15.25,80.0203,Andhra Pradesh,Kadapa Airport,14.51,78.77278,CDP,157.302467
Mogalturru,16.4167,81.6,Andhra Pradesh,Kadapa Airport,14.51,78.77278,CDP,369.7881771
Ukkayapalle,14.4898,78.8927,Andhra Pradesh,Kadapa Airport,14.51,78.77278,CDP,13.10370914
Kosigi,15.85,77.2667,Andhra Pradesh,Kadapa Airport,14.51,78.77278,CDP,219.8237628
Sundararaopeta,16.8031,81.6419,Andhra Pradesh,Kadapa Airport,14.51,78.77278,CDP,399.2076972
Yadiki,15.05,77.88,Andhra Pradesh,Kadapa Airport,14.51,78.77278,CDP,113.2211123
Koilkuntla,15.2333,78.3167,Andhra Pradesh,Kadapa Airport,14.51,78.77278,CDP,94.18589567
Tirumala,13.6833,79.35,Andhra Pradesh,Kadapa Airport,14.51,78.77278,CDP,111.019354
Avanigadda,16.0197,80.92,Andhra Pradesh,Kadapa Airport,14.51,78.77278,CDP,285.0110435
Mummidivaram,16.65,82.1167,Andhra Pradesh,Kadapa Airport,14.51,78.77278,CDP,429.9819909
Kotturu,17.0436,81.7705,Andhra Pradesh,Kadapa Airport,14.51,78.77278,CDP,426.8976296
Gollapudi,16.5412,80.5784,Andhra Pradesh,Kadapa Airport,14.51,78.77278,CDP,297.3719445
Patakakani,16.34,80.4908,Andhra Pradesh,Kadapa Airport,14.51,78.77278,CDP,274.437219
Ravulapalem,16.4833,81.9833,Andhra Pradesh,Kadapa Airport,14.51,78.77278,CDP,408.0141585
Velugodu,15.7817,78.6892,Andhra Pradesh,Kadapa Airport,14.51,78.77278,CDP,141.6908439
Kanchika,16.6856,80.3892,Andhra Pradesh,Kadapa Airport,14.51,78.77278,CDP,297.4703681
Ankireddikuntapalem,15.9154,80.2108,Andhra Pradesh,Kadapa Airport,14.51,78.77278,CDP,219.6075767
Bukkarayasamudram,14.6944,77.6381,Andhra Pradesh,Kadapa Airport,14.51,78.77278,CDP,123.8048455
Kuppam,12.75,78.37,Andhra Pradesh,Kadapa Airport,14.51,78.77278,CDP,200.4844393
Mailavaram,16.7833,80.6333,Andhra Pradesh,Kadapa Airport,14.51,78.77278,CDP,321.8338117
Vendram,16.562,81.4696,Andhra Pradesh,Kadapa Airport,14.51,78.77278,CDP,368.1342803
Chagallu,16.9833,81.6667,Andhra Pradesh,Kadapa Airport,14.51,78.77278,CDP,414.1705095
Pakala,13.4667,79.1167,Andhra Pradesh,Kadapa Airport,14.51,78.77278,CDP,121.799866
Madakasira,13.9369,77.2694,Andhra Pradesh,Kadapa Airport,14.51,78.77278,CDP,174.1228774
Ganapavaram,16.1233,80.1721,Andhra Pradesh,Kadapa Airport,14.51,78.77278,CDP,233.8810114
Pendurti,17.8278,83.2022,Andhra Pradesh,Kadapa Airport,14.51,78.77278,CDP,599.8252799
Maruturu,15.9862,80.1041,Andhra Pradesh,Kadapa Airport,14.51,78.77278,CDP,217.5805809
Pamarru,16.327,80.961,Andhra Pradesh,Kadapa Airport,14.51,78.77278,CDP,309.5702654
Kaikalur,16.5509,81.2,Andhra Pradesh,Kadapa Airport,14.51,78.77278,CDP,345.1262453
Chagalamarri,14.9667,78.5833,Andhra Pradesh,Kadapa Airport,14.51,78.77278,CDP,54.71803355
Nizampatam,15.9,80.6667,Andhra Pradesh,Kadapa Airport,14.51,78.77278,CDP,255.3146989
Palkonda,18.6,83.75,Andhra Pradesh,Kadapa Airport,14.51,78.77278,CDP,698.6384368
Banganapalle,15.3167,78.2333,Andhra Pradesh,Kadapa Airport,14.51,78.77278,CDP,106.8004889
Gannavaram,16.5333,80.8,Andhra Pradesh,Kadapa Airport,14.51,78.77278,CDP,312.7040293
Achampet,16.6299,80.1213,Andhra Pradesh,Kadapa Airport,14.51,78.77278,CDP,276.4535409
Vinjamur,14.833,79.583,Andhra Pradesh,Kadapa Airport,14.51,78.77278,CDP,94.26495215
Kamalapuram,14.5833,78.65,Andhra Pradesh,Kadapa Airport,14.51,78.77278,CDP,15.52625516
Nellimarla,18.1667,83.4333,Andhra Pradesh,Kadapa Airport,14.51,78.77278,CDP,642.2760215
Nadikude,16.5941,79.7167,Andhra Pradesh,Kadapa Airport,14.51,78.77278,CDP,252.8381839
Chandragiri,13.5833,79.3167,Andhra Pradesh,Kadapa Airport,14.51,78.77278,CDP,118.5770909
Gopavaram,14.7853,78.5728,Andhra Pradesh,Kadapa Airport,14.51,78.77278,CDP,37.41584553
Chodavaram,17.8333,82.95,Andhra Pradesh,Kadapa Airport,14.51,78.77278,CDP,579.2149277
Erragondapalem,16.0397,79.3043,Andhra Pradesh,Kadapa Airport,14.51,78.77278,CDP,179.395304
Marjampad,16.592,79.908,Andhra Pradesh,Kadapa Airport,14.51,78.77278,CDP,261.5009594
Kothanuru,16.0022,81.0417,Andhra Pradesh,Kadapa Airport,14.51,78.77278,CDP,294.5687619
Karlapalem,15.9333,80.55,Andhra Pradesh,Kadapa Airport,14.51,78.77278,CDP,247.8016392
Ellamanda,16.1847,80.0546,Andhra Pradesh,Kadapa Airport,14.51,78.77278,CDP,231.4470466
Kanekallu,14.8864,77.0317,Andhra Pradesh,Kadapa Airport,14.51,78.77278,CDP,191.8832149
Namburu,16.36,80.52,Andhra Pradesh,Kadapa Airport,14.51,78.77278,CDP,278.1812052
Akanavaritota,16.4141,81.6367,Andhra Pradesh,Kadapa Airport,14.51,78.77278,CDP,372.854594
Yandrapalle,16.0472,79.3073,Andhra Pradesh,Kadapa Airport,14.51,78.77278,CDP,180.2879679
Peruru,14.3503,77.3497,Andhra Pradesh,Kadapa Airport,14.51,78.77278,CDP,154.2722988
Chinna Ganjam,15.7,80.25,Andhra Pradesh,Kadapa Airport,14.51,78.77278,CDP,206.5353509
Narapala,14.7206,77.8106,Andhra Pradesh,Kadapa Airport,14.51,78.77278,CDP,106.1428712
Varidhanam,16.5576,81.8303,Andhra Pradesh,Kadapa Airport,14.51,78.77278,CDP,398.899072
Somandepalle,14.0078,77.6086,Andhra Pradesh,Kadapa Airport,14.51,78.77278,CDP,137.328505
Gatada,18.4144,83.5041,Andhra Pradesh,Kadapa Airport,14.51,78.77278,CDP,665.5093528
Jaggampeta,17.1833,82.05,Andhra Pradesh,Kadapa Airport,14.51,78.77278,CDP,459.5921224
Kottakota,17.7513,82.7004,Andhra Pradesh,Kadapa Airport,14.51,78.77278,CDP,553.0348226
Sompeta,18.93,84.6,Andhra Pradesh,Kadapa Airport,14.51,78.77278,CDP,791.4432086
Tadikonda,16.4167,80.4542,Andhra Pradesh,Kadapa Airport,14.51,78.77278,CDP,278.2405193
Sirvel,15.321,78.5344,Andhra Pradesh,Kadapa Airport,14.51,78.77278,CDP,93.74597471
Asakapalle,17.7364,83.3,Andhra Pradesh,Kadapa Airport,14.51,78.77278,CDP,602.0745761
Tummalapenta,14.8997,80.0687,Andhra Pradesh,Kadapa Airport,14.51,78.77278,CDP,145.9600616
Kottapalle,17.2918,81.8939,Andhra Pradesh,Kadapa Airport,14.51,78.77278,CDP,455.0335699
Kotta Kalidindi,16.5032,81.2877,Andhra Pradesh,Kadapa Airport,14.51,78.77278,CDP,348.8899424
Lakshmaneswaram,16.4082,81.6867,Andhra Pradesh,Kadapa Airport,14.51,78.77278,CDP,376.9132742
Veldurti,15.5667,77.9167,Andhra Pradesh,Kadapa Airport,14.51,78.77278,CDP,149.1888162
Vissannapeta,16.9398,80.7828,Andhra Pradesh,Kadapa Airport,14.51,78.77278,CDP,345.360589
Pulla,16.806,81.3241,Andhra Pradesh,Kadapa Airport,14.51,78.77278,CDP,373.8800398
Inkollu,15.83,80.2,Andhra Pradesh,Kadapa Airport,14.51,78.77278,CDP,212.139409
Vayalpad,13.65,78.6333,Andhra Pradesh,Kadapa Airport,14.51,78.77278,CDP,96.80365333
Gunjapalle,14.3845,77.9495,Andhra Pradesh,Kadapa Airport,14.51,78.77278,CDP,89.74129806
Yerrapalem,16.15,80.03,Andhra Pradesh,Kadapa Airport,14.51,78.77278,CDP,226.7830716
Padugupadu,14.4885,79.9923,Andhra Pradesh,Kadapa Airport,14.51,78.77278,CDP,131.3071691
Tadigadapa,16.4713,80.697,Andhra Pradesh,Kadapa Airport,14.51,78.77278,CDP,300.1185349
Gudipallipadu,14.4588,80.0482,Andhra Pradesh,Kadapa Airport,14.51,78.77278,CDP,137.4303777
Challapalle,16.1167,80.9333,Andhra Pradesh,Kadapa Airport,14.51,78.77278,CDP,292.5795217
Pernamitta,15.5333,80,Andhra Pradesh,Kadapa Airport,14.51,78.77278,CDP,174.1182811
Srikurmam,18.2708,84.0044,Andhra Pradesh,Kadapa Airport,14.51,78.77278,CDP,697.2668868
Perupalem,16.3705,81.5813,Andhra Pradesh,Kadapa Airport,14.51,78.77278,CDP,365.2421059
Kottapeta,15.7913,80.377,Andhra Pradesh,Kadapa Airport,14.51,78.77278,CDP,223.4804171
Kamavarapukota,17.0031,81.1219,Andhra Pradesh,Kadapa Airport,14.51,78.77278,CDP,374.2157511
Tsundupalle,13.9809,78.9152,Andhra Pradesh,Kadapa Airport,14.51,78.77278,CDP,60.80256827
Balighattam,17.651,82.6059,Andhra Pradesh,Kadapa Airport,14.51,78.77278,CDP,538.1971429
Gonegandla,15.7167,77.6,Andhra Pradesh,Kadapa Airport,14.51,78.77278,CDP,183.9923826
Podalakur,14.3667,79.7333,Andhra Pradesh,Kadapa Airport,14.51,78.77278,CDP,104.6517511
Kakkalapalle,14.6415,77.5668,Andhra Pradesh,Kadapa Airport,14.51,78.77278,CDP,130.6039156
Paragaticherla,16.2496,79.9679,Andhra Pradesh,Kadapa Airport,14.51,78.77278,CDP,232.0199983
Rentachintala,16.5525,79.5533,Andhra Pradesh,Kadapa Airport,14.51,78.77278,CDP,242.018622
Gokavaram,17.2667,81.85,Andhra Pradesh,Kadapa Airport,14.51,78.77278,CDP,449.7106825
Phirangipuram,16.2889,80.2628,Andhra Pradesh,Kadapa Airport,14.51,78.77278,CDP,254.2422393
Nunna,16.5788,80.6841,Andhra Pradesh,Kadapa Airport,14.51,78.77278,CDP,307.9566918
Galivedu,14.0333,78.5,Andhra Pradesh,Kadapa Airport,14.51,78.77278,CDP,60.61188016
Kota,14.0333,80.05,Andhra Pradesh,Kadapa Airport,14.51,78.77278,CDP,147.4908725
Tadikalapudi,16.5356,81.1033,Andhra Pradesh,Kadapa Airport,14.51,78.77278,CDP,336.2554265
Porumamilla,15.0167,78.9833,Andhra Pradesh,Kadapa Airport,14.51,78.77278,CDP,60.7194874
Agiripalle,16.6833,80.65,Andhra Pradesh,Kadapa Airport,14.51,78.77278,CDP,314.3483694
Chennur,14.5667,78.8,Andhra Pradesh,Kadapa Airport,14.51,78.77278,CDP,6.952243218
Anantapalle,16.9767,81.4442,Andhra Pradesh,Kadapa Airport,14.51,78.77278,CDP,396.1779879
Kolluru,16.1847,80.7961,Andhra Pradesh,Kadapa Airport,14.51,78.77278,CDP,285.9096077
Vontimitta,14.3833,79.0333,Andhra Pradesh,Kadapa Airport,14.51,78.77278,CDP,31.39150886
Penugonda,16.6547,81.7445,Andhra Pradesh,Kadapa Airport,14.51,78.77278,CDP,397.7034805
Patapatnam,18.75,84.0833,Andhra Pradesh,Kadapa Airport,14.51,78.77278,CDP,736.3494969
Udayagiri,14.8667,79.3167,Andhra Pradesh,Kadapa Airport,14.51,78.77278,CDP,70.68198323
Kasimkota,17.6736,82.9634,Andhra Pradesh,Kadapa Airport,14.51,78.77278,CDP,569.3220695
Dubacherla,16.9116,81.3569,Andhra Pradesh,Kadapa Airport,14.51,78.77278,CDP,384.4601285
Narendrapatnam,17.0964,81.8812,Andhra Pradesh,Kadapa Airport,14.51,78.77278,CDP,439.6502057
Kolakaluru,16.3052,80.6182,Andhra Pradesh,Kadapa Airport,14.51,78.77278,CDP,281.0304786
Antarvedi,16.3333,81.7333,Andhra Pradesh,Kadapa Airport,14.51,78.77278,CDP,376.5610335
Ernagudem,16.9989,81.5061,Andhra Pradesh,Kadapa Airport,14.51,78.77278,CDP,402.6645701
Vatluru,16.7009,81.0525,Andhra Pradesh,Kadapa Airport,14.51,78.77278,CDP,344.8888439
Vemuladivi,16.3408,81.6958,Andhra Pradesh,Kadapa Airport,14.51,78.77278,CDP,373.6291064
Chilamatturu,13.8394,77.7039,Andhra Pradesh,Kadapa Airport,14.51,78.77278,CDP,137.256212
Kambaduru,14.3575,77.2186,Andhra Pradesh,Kadapa Airport,14.51,78.77278,CDP,168.2187122
Vipparla,16.3023,79.9373,Andhra Pradesh,Kadapa Airport,14.51,78.77278,CDP,235.1610919
Bugganipalle,15.4741,78.175,Andhra Pradesh,Kadapa Airport,14.51,78.77278,CDP,124.9599195
Maddikera,15.25,77.417,Andhra Pradesh,Kadapa Airport,14.51,78.77278,CDP,167.3286408
Undi,16.6,81.4667,Andhra Pradesh,Kadapa Airport,14.51,78.77278,CDP,370.5047396
Bhanumukkala,15.3119,78.2277,Andhra Pradesh,Kadapa Airport,14.51,78.77278,CDP,106.6821133
Peddaboddepalle,17.6606,82.6296,Andhra Pradesh,Kadapa Airport,14.51,78.77278,CDP,540.8088236
Mulakaledu,14.3648,76.9267,Andhra Pradesh,Kadapa Airport,14.51,78.77278,CDP,199.4462602
Billapadu,16.6364,80.9661,Andhra Pradesh,Kadapa Airport,14.51,78.77278,CDP,333.3034694
Pyapali,15.2669,77.7611,Andhra Pradesh,Kadapa Airport,14.51,78.77278,CDP,137.4869063
Tondangi,17.25,82.4667,Andhra Pradesh,Kadapa Airport,14.51,78.77278,CDP,498.864178
Cumbum,15.5667,79.1167,Andhra Pradesh,Kadapa Airport,14.51,78.77278,CDP,123.1670961
Gurramkonda,13.7833,78.5833,Andhra Pradesh,Kadapa Airport,14.51,78.77278,CDP,83.34802802
Putaparti,14.166,77.811,Andhra Pradesh,Kadapa Airport,14.51,78.77278,CDP,110.4487639
Peddapalle,14.4046,78.9456,Andhra Pradesh,Kadapa Airport,14.51,78.77278,CDP,21.99140133
Damalcheruvu,13.4833,79.05,Andhra Pradesh,Kadapa Airport,14.51,78.77278,CDP,118.0168405
Chipurupalle,18.3,83.5667,Andhra Pradesh,Kadapa Airport,14.51,78.77278,CDP,662.5384856
Devarapalle,17.03,81.37,Andhra Pradesh,Kadapa Airport,14.51,78.77278,CDP,394.6461598
Kankipadu,16.45,80.7833,Andhra Pradesh,Kadapa Airport,14.51,78.77278,CDP,304.8722737
Vemuluru,16.9337,81.8057,Andhra Pradesh,Kadapa Airport,14.51,78.77278,CDP,421.8937309
Holalagondi,15.4873,77.0464,Andhra Pradesh,Kadapa Airport,14.51,78.77278,CDP,214.9198065
Paniem,15.5167,78.35,Andhra Pradesh,Kadapa Airport,14.51,78.77278,CDP,120.7982407
Kottacheruvu,14.1886,77.7658,Andhra Pradesh,Kadapa Airport,14.51,78.77278,CDP,114.2129804
Relangi,16.705,81.647,Andhra Pradesh,Kadapa Airport,14.51,78.77278,CDP,392.8172914
Gundlapelle,16.4102,79.8813,Andhra Pradesh,Kadapa Airport,14.51,78.77278,CDP,242.3980052
Nagireddipalli,14.2701,79.1013,Andhra Pradesh,Kadapa Airport,14.51,78.77278,CDP,44.31245588
Gavinivaripalem,15.8378,80.4315,Andhra Pradesh,Kadapa Airport,14.51,78.77278,CDP,231.2680641
Pakala,15.2694,80.072,Andhra Pradesh,Kadapa Airport,14.51,78.77278,CDP,163.1641157
Alur,15.3942,77.2264,Andhra Pradesh,Kadapa Airport,14.51,78.77278,CDP,193.0393228
Mutyalapalle,16.4019,81.5703,Andhra Pradesh,Kadapa Airport,14.51,78.77278,CDP,366.2462996
Karempudi,16.4333,79.7167,Andhra Pradesh,Kadapa Airport,14.51,78.77278,CDP,236.5753252
Penuganchiprolu,16.9033,80.2356,Andhra Pradesh,Kadapa Airport,14.51,78.77278,CDP,308.7645871
Muttukuru,14.2667,80.1,Andhra Pradesh,Kadapa Airport,14.51,78.77278,CDP,145.4882288
Kottavalasa,17.9,83.2,Andhra Pradesh,Kadapa Airport,14.51,78.77278,CDP,604.5419937
Viraghattam,18.6833,83.6,Andhra Pradesh,Kadapa Airport,14.51,78.77278,CDP,692.6680704
Anantarazupeta,14.0014,79.3319,Andhra Pradesh,Kadapa Airport,14.51,78.77278,CDP,82.6388579
Unguturu,16.823,81.4238,Andhra Pradesh,Kadapa Airport,14.51,78.77278,CDP,383.0051208
Bikkavolu,16.95,82.05,Andhra Pradesh,Kadapa Airport,14.51,78.77278,CDP,443.4201096
Chebrolu,16.8206,81.4048,Andhra Pradesh,Kadapa Airport,14.51,78.77278,CDP,381.3217848
Nallagunta,16.5763,80.6854,Andhra Pradesh,Kadapa Airport,14.51,78.77278,CDP,307.842606
Katravulapalle,17.1277,82.0831,Andhra Pradesh,Kadapa Airport,14.51,78.77278,CDP,458.3858679
Antarvedipalem,16.3319,81.732,Andhra Pradesh,Kadapa Airport,14.51,78.77278,CDP,376.3607269
Uttukkottai,13.3354,79.898,Andhra Pradesh,Kadapa Airport,14.51,78.77278,CDP,178.3440524
Brahmanandapuram,16.9583,82.0056,Andhra Pradesh,Kadapa Airport,14.51,78.77278,CDP,440.2358198
Kubadupuram,16.468,79.9539,Andhra Pradesh,Kadapa Airport,14.51,78.77278,CDP,251.8303402
Polukallu,15.8284,77.7431,Andhra Pradesh,Kadapa Airport,14.51,78.77278,CDP,183.5817222
Linganaboyinacherla,16.3961,81.6598,Andhra Pradesh,Kadapa Airport,14.51,78.77278,CDP,373.7795183
Polavaram,17.2479,81.6432,Andhra Pradesh,Kadapa Airport,14.51,78.77278,CDP,432.3279484
Iskapalli,14.7363,80.0981,Andhra Pradesh,Kadapa Airport,14.51,78.77278,CDP,144.7981081
Arugollu,16.8253,81.5775,Andhra Pradesh,Kadapa Airport,14.51,78.77278,CDP,395.5169213
Kodigenahalli,13.8608,77.4792,Andhra Pradesh,Kadapa Airport,14.51,78.77278,CDP,157.0288722
Palkur,15.4144,78.2507,Andhra Pradesh,Kadapa Airport,14.51,78.77278,CDP,115.1461774
Bodagudipadu,14.7385,79.8602,Andhra Pradesh,Kadapa Airport,14.51,78.77278,CDP,119.7251106
Tummalapenta,15.0278,78.0234,Andhra Pradesh,Kadapa Airport,14.51,78.77278,CDP,99.03148683
Vempalle,13.5382,78.4604,Andhra Pradesh,Kadapa Airport,14.51,78.77278,CDP,113.1920405
Bhimadolu,16.8144,81.2617,Andhra Pradesh,Kadapa Airport,14.51,78.77278,CDP,369.6705453
Rayapalle,16.2828,81.2504,Andhra Pradesh,Kadapa Airport,14.51,78.77278,CDP,330.7577573
Razole,16.4743,81.8402,Andhra Pradesh,Kadapa Airport,14.51,78.77278,CDP,394.6251473
Duvva,16.7792,81.6242,Andhra Pradesh,Kadapa Airport,14.51,78.77278,CDP,396.0672728
Janapadu,16.4617,79.8699,Andhra Pradesh,Kadapa Airport,14.51,78.77278,CDP,246.8141896
Gudikallu,15.7441,77.476,Andhra Pradesh,Kadapa Airport,14.51,78.77278,CDP,195.4641946
Nallajerla,16.95,81.4,Andhra Pradesh,Kadapa Airport,14.51,78.77278,CDP,390.7248643
Chinna Mushidivada,17.8057,83.2033,Andhra Pradesh,Kadapa Airport,14.51,78.77278,CDP,598.431637
Amaravati,16.573,80.358,Andhra Pradesh,Kadapa Airport,14.51,78.77278,CDP,285.4087635
Chimalapadu,16.8902,80.6505,Andhra Pradesh,Kadapa Airport,14.51,78.77278,CDP,332.3296369
Paruchuru,15.967,80.275,Andhra Pradesh,Kadapa Airport,14.51,78.77278,CDP,228.517578
Mangalapur,13.6245,79.5803,Andhra Pradesh,Kadapa Airport,14.51,78.77278,CDP,131.4575798
Vemulapudi,17.6087,82.6138,Andhra Pradesh,Kadapa Airport,14.51,78.77278,CDP,535.8374997
Undrajavaram,16.7866,81.6997,Andhra Pradesh,Kadapa Airport,14.51,78.77278,CDP,402.842935
Aginiparru,16.6817,80.7839,Andhra Pradesh,Kadapa Airport,14.51,78.77278,CDP,323.5745054
Doddipatla,16.5167,81.8436,Andhra Pradesh,Kadapa Airport,14.51,78.77278,CDP,397.5268362
Kathevaram,16.261,80.636,Andhra Pradesh,Kadapa Airport,14.51,78.77278,CDP,278.9396168
Bondada,16.5295,81.4549,Andhra Pradesh,Kadapa Airport,14.51,78.77278,CDP,364.6817042
Hissaramuruvani,15.771,77.4194,Andhra Pradesh,Kadapa Airport,14.51,78.77278,CDP,201.8951208
Penamaluru,16.4681,80.7194,Andhra Pradesh,Kadapa Airport,14.51,78.77278,CDP,301.5165256
Rajupalem,15.1385,79.996,Andhra Pradesh,Kadapa Airport,14.51,78.77278,CDP,148.9061872
Medapadu,17.0044,82.1001,Andhra Pradesh,Kadapa Airport,14.51,78.77278,CDP,451.3257924
Gurlapeta,18.1167,83.4167,Andhra Pradesh,Kadapa Airport,14.51,78.77278,CDP,637.4450155
Peddavadlapudi,16.4098,80.6114,Andhra Pradesh,Kadapa Airport,14.51,78.77278,CDP,288.8754125
Kalikiri,13.6333,78.8,Andhra Pradesh,Kadapa Airport,14.51,78.77278,CDP,97.52879078
Pandireddigudem,16.8,81.3167,Andhra Pradesh,Kadapa Airport,14.51,78.77278,CDP,372.8487057
Peddakurapadu,16.4833,80.2667,Andhra Pradesh,Kadapa Airport,14.51,78.77278,CDP,271.6009723
Dammennu,16.8255,81.7079,Andhra Pradesh,Kadapa Airport,14.51,78.77278,CDP,406.2299018
Kollipara,16.2877,80.7519,Andhra Pradesh,Kadapa Airport,14.51,78.77278,CDP,289.9730101
Lingamparti,17.2827,82.1231,Andhra Pradesh,Kadapa Airport,14.51,78.77278,CDP,472.6463804
Uppada,17.0833,82.3333,Andhra Pradesh,Kadapa Airport,14.51,78.77278,CDP,476.4152498
Mulakaluru,16.2776,80.0672,Andhra Pradesh,Kadapa Airport,14.51,78.77278,CDP,240.5953858
Lakkavaram,17.0628,81.2919,Andhra Pradesh,Kadapa Airport,14.51,78.77278,CDP,391.42824
Kachavaram,16.5361,79.7187,Andhra Pradesh,Kadapa Airport,14.51,78.77278,CDP,247.0342778
Atmakuru,14.6452,77.3554,Andhra Pradesh,Kadapa Airport,14.51,78.77278,CDP,153.2705505
Pentapadu Kasba,16.7804,81.5254,Andhra Pradesh,Kadapa Airport,14.51,78.77278,CDP,388.0583779
Ganapavaram,15.9232,80.5856,Andhra Pradesh,Kadapa Airport,14.51,78.77278,CDP,250.0489247
Venkatagirikota,13.0012,78.4795,Andhra Pradesh,Kadapa Airport,14.51,78.77278,CDP,170.7348002
Nandyalampeta,14.7218,78.8083,Andhra Pradesh,Kadapa Airport,14.51,78.77278,CDP,23.85916997
Chodavaram,17.438,81.7781,Andhra Pradesh,Kadapa Airport,14.51,78.77278,CDP,457.3706067
Chinna Gollapalem,16.3701,81.5322,Andhra Pradesh,Kadapa Airport,14.51,78.77278,CDP,360.8924461
Jami,18.05,83.2667,Andhra Pradesh,Kadapa Airport,14.51,78.77278,CDP,620.4205111
Duvvuru,14.8333,78.65,Andhra Pradesh,Kadapa Airport,14.51,78.77278,CDP,38.29865635
Obalapuram,14.8,78.783,Andhra Pradesh,Kadapa Airport,14.51,78.77278,CDP,32.26526588
Madugula,17.9167,82.8,Andhra Pradesh,Kadapa Airport,14.51,78.77278,CDP,572.9905098
Battulapalle,14.5167,77.7833,Andhra Pradesh,Kadapa Airport,14.51,78.77278,CDP,106.5166958
Kotturu,17.2958,82.4752,Andhra Pradesh,Kadapa Airport,14.51,78.77278,CDP,502.66949
Ponduru,18.3508,83.7567,Andhra Pradesh,Kadapa Airport,14.51,78.77278,CDP,681.7617632
Parigi,13.9069,77.4572,Andhra Pradesh,Kadapa Airport,14.51,78.77278,CDP,156.8671383
Belagal,15.8183,77.6702,Andhra Pradesh,Kadapa Airport,14.51,78.77278,CDP,187.5236994
Karedu,15.1833,80.0667,Andhra Pradesh,Kadapa Airport,14.51,78.77278,CDP,157.9443099
Coringa,16.8,82.2333,Andhra Pradesh,Kadapa Airport,14.51,78.77278,CDP,449.5527286
Zuvvaladinne,14.808,80.0705,Andhra Pradesh,Kadapa Airport,14.51,78.77278,CDP,143.4811221
Zaladanki,14.8843,79.9125,Andhra Pradesh,Kadapa Airport,14.51,78.77278,CDP,129.4569678
Guruvarajukuppam,13.1125,79.5472,Andhra Pradesh,Kadapa Airport,14.51,78.77278,CDP,176.4646685
Kolattur,13.3295,79.4797,Andhra Pradesh,Kadapa Airport,14.51,78.77278,CDP,151.8279552
Buttayagudem,17.2089,81.3014,Andhra Pradesh,Kadapa Airport,14.51,78.77278,CDP,403.976608
Melavayi,13.9397,77.2256,Andhra Pradesh,Kadapa Airport,14.51,78.77278,CDP,178.4128357
Yenkuvarigudem,17.2055,81.1598,Andhra Pradesh,Kadapa Airport,14.51,78.77278,CDP,393.7130462
Chamarru,16.65,80.1333,Andhra Pradesh,Kadapa Airport,14.51,78.77278,CDP,279.0269507
Sabbavaram,17.79,83.123,Andhra Pradesh,Kadapa Airport,14.51,78.77278,CDP,590.6118387
Bukkapatnam,14.2,77.8,Andhra Pradesh,Kadapa Airport,14.51,78.77278,CDP,110.3146151
Pulakurti,15.7502,77.7091,Andhra Pradesh,Kadapa Airport,14.51,78.77278,CDP,179.0334626
Anndevarapeta,17.0937,81.5799,Andhra Pradesh,Kadapa Airport,14.51,78.77278,CDP,415.5993227
Papampeta,14.6855,77.578,Andhra Pradesh,Kadapa Airport,14.51,78.77278,CDP,130.0372582
Pittalavanipalem,15.9686,80.6054,Andhra Pradesh,Kadapa Airport,14.51,78.77278,CDP,254.8704253
Karvetnagar,13.4167,79.45,Andhra Pradesh,Kadapa Airport,14.51,78.77278,CDP,141.8427109
Velivennu,16.5034,81.4116,Andhra Pradesh,Kadapa Airport,14.51,78.77278,CDP,359.2544773
Pinneli,16.5689,79.8334,Andhra Pradesh,Kadapa Airport,14.51,78.77278,CDP,255.5816475
Ramachandrapuram,16.5689,81.6645,Andhra Pradesh,Kadapa Airport,14.51,78.77278,CDP,385.187491
Doranala,15.9,79.1,Andhra Pradesh,Kadapa Airport,14.51,78.77278,CDP,158.4986727
Kaviti,19.0167,84.6833,Andhra Pradesh,Kadapa Airport,14.51,78.77278,CDP,804.2643727
Pata Putrela,17.0173,80.7137,Andhra Pradesh,Kadapa Airport,14.51,78.77278,CDP,347.6504574
Tetagunta,17.314,82.443,Andhra Pradesh,Kadapa Airport,14.51,78.77278,CDP,501.204503
Mandasa,18.8683,84.463,Andhra Pradesh,Kadapa Airport,14.51,78.77278,CDP,775.841427
Tanakallu,13.92,78.18,Andhra Pradesh,Kadapa Airport,14.51,78.77278,CDP,91.57870401
Kirikera,13.769,77.4841,Andhra Pradesh,Kadapa Airport,14.51,78.77278,CDP,161.5446897
Chinna Orampadu,14.0613,79.2671,Andhra Pradesh,Kadapa Airport,14.51,78.77278,CDP,72.9835403
Enamadala,16.2281,80.3306,Andhra Pradesh,Kadapa Airport,14.51,78.77278,CDP,253.758077
Gundugolanu,16.7833,81.2333,Andhra Pradesh,Kadapa Airport,14.51,78.77278,CDP,365.0971276
Prattipadu,17.2333,82.2,Andhra Pradesh,Kadapa Airport,14.51,78.77278,CDP,475.4270016
Pedda Vegi,16.7708,81.1039,Andhra Pradesh,Kadapa Airport,14.51,78.77278,CDP,354.2480445
Denduluru,16.4527,81.0951,Andhra Pradesh,Kadapa Airport,14.51,78.77278,CDP,329.5266366
Kalipatnam,16.3904,81.5295,Andhra Pradesh,Kadapa Airport,14.51,78.77278,CDP,361.9425057
Allur,14.68,80.06,Andhra Pradesh,Kadapa Airport,14.51,78.77278,CDP,139.7972935
Owk,15.2167,78.1167,Andhra Pradesh,Kadapa Airport,14.51,78.77278,CDP,105.5787772
Kornepadu,16.2444,80.3857,Andhra Pradesh,Kadapa Airport,14.51,78.77278,CDP,259.0266066
Sher Muhammadpuram,18.2997,83.8331,Andhra Pradesh,Kadapa Airport,14.51,78.77278,CDP,684.6768082
Murukondapadu,15.9174,80.4131,Andhra Pradesh,Kadapa Airport,14.51,78.77278,CDP,235.5120431
Ganapavaram,16.7,81.4667,Andhra Pradesh,Kadapa Airport,14.51,78.77278,CDP,377.5235607
Chintapalle,16.8936,80.1387,Andhra Pradesh,Kadapa Airport,14.51,78.77278,CDP,302.6938209
Nandimandalam,14.4052,78.5246,Andhra Pradesh,Kadapa Airport,14.51,78.77278,CDP,29.15282069
Kautalam,15.7711,77.1239,Andhra Pradesh,Kadapa Airport,14.51,78.77278,CDP,225.7987472
Karanchedu,15.8823,80.317,Andhra Pradesh,Kadapa Airport,14.51,78.77278,CDP,225.2579474
Bayyanagudem,17.125,81.3628,Andhra Pradesh,Kadapa Airport,14.51,78.77278,CDP,401.6371726
Narasapuram,17.1016,81.0765,Andhra Pradesh,Kadapa Airport,14.51,78.77278,CDP,379.1843948
Nandavaram,16.017,77.531,Andhra Pradesh,Kadapa Airport,14.51,78.77278,CDP,214.0637166
Kunkalagunta,16.2969,79.8866,Andhra Pradesh,Kadapa Airport,14.51,78.77278,CDP,231.8078002
Chebrolu,16.1967,80.525,Andhra Pradesh,Kadapa Airport,14.51,78.77278,CDP,265.467861
Rayavaram,17.3608,81.753,Andhra Pradesh,Kadapa Airport,14.51,78.77278,CDP,449.4397146
Tummalacheruvu,16.5246,79.7988,Andhra Pradesh,Kadapa Airport,14.51,78.77278,CDP,249.5294264
Kurabalakota,13.65,78.4833,Andhra Pradesh,Kadapa Airport,14.51,78.77278,CDP,100.5953042
Gopalapuram,17.1007,81.5406,Andhra Pradesh,Kadapa Airport,14.51,78.77278,CDP,413.1101875
Jidigunta,16.9098,81.8553,Andhra Pradesh,Kadapa Airport,14.51,78.77278,CDP,424.3305372
Krosuru,16.55,80.1331,Andhra Pradesh,Kadapa Airport,14.51,78.77278,CDP,269.6147467
Chennur,14.1473,79.8477,Andhra Pradesh,Kadapa Airport,14.51,78.77278,CDP,122.6288344
Sunkarevu,16.39,81.85,Andhra Pradesh,Kadapa Airport,14.51,78.77278,CDP,390.4596949
Kundurpi,14.2833,77.0333,Andhra Pradesh,Kadapa Airport,14.51,78.77278,CDP,189.035163
Satyavedu,13.437,79.956,Andhra Pradesh,Kadapa Airport,14.51,78.77278,CDP,174.7443973
Rupenaguntla,16.3043,79.9991,Andhra Pradesh,Kadapa Airport,14.51,78.77278,CDP,238.9289133
Kalakada,13.8167,78.8,Andhra Pradesh,Kadapa Airport,14.51,78.77278,CDP,77.14728111
Pallipattu,13.3361,79.4413,Andhra Pradesh,Kadapa Airport,14.51,78.77278,CDP,149.1449839
Gundrajukuppam,13.3406,79.5687,Andhra Pradesh,Kadapa Airport,14.51,78.77278,CDP,155.8424178
Yalluru,15.3063,78.4559,Andhra Pradesh,Kadapa Airport,14.51,78.77278,CDP,94.86554282
Konakondla,15.1053,77.364,Andhra Pradesh,Kadapa Airport,14.51,78.77278,CDP,165.2800208
Cherlagandlapalem,16.0069,80.6117,Andhra Pradesh,Kadapa Airport,14.51,78.77278,CDP,258.1036702
Iskapalem,14.5416,79.8925,Andhra Pradesh,Kadapa Airport,14.51,78.77278,CDP,120.5783713
Kovurupalli,14.7772,79.9999,Andhra Pradesh,Kadapa Airport,14.51,78.77278,CDP,135.3189977
Narayanavanam,13.42,79.58,Andhra Pradesh,Kadapa Airport,14.51,78.77278,CDP,149.2554194
Chintakunta,14.6476,78.469,Andhra Pradesh,Kadapa Airport,14.51,78.77278,CDP,36.09455007
Talupula,14.25,78.2667,Andhra Pradesh,Kadapa Airport,14.51,78.77278,CDP,61.70260881
Kummarapurugupalem,16.3653,81.6192,Andhra Pradesh,Kadapa Airport,14.51,78.77278,CDP,368.275796
Budili,13.9353,77.7355,Andhra Pradesh,Kadapa Airport,14.51,78.77278,CDP,128.7783972
Tadepalle,16.8454,81.4966,Andhra Pradesh,Kadapa Airport,14.51,78.77278,CDP,390.4549726
Guntupalle,16.568,80.548,Andhra Pradesh,Kadapa Airport,14.51,78.77278,CDP,297.5414552
Arambakkam,13.5258,80.071,Andhra Pradesh,Kadapa Airport,14.51,78.77278,CDP,177.7411364
Potukonda,17.2708,81.754,Andhra Pradesh,Kadapa Airport,14.51,78.77278,CDP,442.5684465
Nagalapuram,13.3889,79.7967,Andhra Pradesh,Kadapa Airport,14.51,78.77278,CDP,166.5814479
Palukudoddi,15.8504,77.6753,Andhra Pradesh,Kadapa Airport,14.51,78.77278,CDP,189.9605662
Murapaka,18.2282,83.7926,Andhra Pradesh,Kadapa Airport,14.51,78.77278,CDP,676.4708624
Duggirala,16.3271,80.628,Andhra Pradesh,Kadapa Airport,14.51,78.77278,CDP,283.4937477
Bhattiprolu,16.1026,80.7807,Andhra Pradesh,Kadapa Airport,14.51,78.77278,CDP,278.8054656
Pata Ellamilli,16.8473,81.4884,Andhra Pradesh,Kadapa Airport,14.51,78.77278,CDP,389.9396478
Elchuru,16.0813,79.9269,Andhra Pradesh,Kadapa Airport,14.51,78.77278,CDP,214.1241525
Sankhavaram,17.2704,82.3445,Andhra Pradesh,Kadapa Airport,14.51,78.77278,CDP,489.9842467
Perali,15.886,80.547,Andhra Pradesh,Kadapa Airport,14.51,78.77278,CDP,244.2420391
Rolla,13.8331,77.1,Andhra Pradesh,Kadapa Airport,14.51,78.77278,CDP,195.419061
Chinna Annaluru,14.8913,79.6761,Andhra Pradesh,Kadapa Airport,14.51,78.77278,CDP,106.0046273
Edlapadu,16.1007,80.1339,Andhra Pradesh,Kadapa Airport,14.51,78.77278,CDP,229.3352395
Ramabhadrapuram,18.5,83.2833,Andhra Pradesh,Kadapa Airport,14.51,78.77278,CDP,654.1861764
Nallamada,14.2164,77.9944,Andhra Pradesh,Kadapa Airport,14.51,78.77278,CDP,89.9779451
Kalavapudi,16.4623,81.3887,Andhra Pradesh,Kadapa Airport,14.51,78.77278,CDP,354.5326794
Nadendla,16.175,80.1861,Andhra Pradesh,Kadapa Airport,14.51,78.77278,CDP,239.2550608
Swarna,15.8542,80.2858,Andhra Pradesh,Kadapa Airport,14.51,78.77278,CDP,220.686722
Sankhavaram,15.0497,78.9836,Andhra Pradesh,Kadapa Airport,14.51,78.77278,CDP,64.14977371
Erraguntla,15.2821,78.5106,Andhra Pradesh,Kadapa Airport,14.51,78.77278,CDP,90.35798123
Rambilli,17.4644,82.9314,Andhra Pradesh,Kadapa Airport,14.51,78.77278,CDP,552.6931775
Palakollu,16.5333,81.7333,Andhra Pradesh,Kadapa Airport,14.51,78.77278,CDP,388.858092
Yellayapalem,14.5378,79.9515,Andhra Pradesh,Kadapa Airport,14.51,78.77278,CDP,126.9166776
Mutluru,16.15,80.4833,Andhra Pradesh,Kadapa Airport,14.51,78.77278,CDP,258.6502591
Kondakomarla,14.0678,77.9561,Andhra Pradesh,Kadapa Airport,14.51,78.77278,CDP,100.806276
Ravutulapudi,17.3833,82.3833,Andhra Pradesh,Kadapa Airport,14.51,78.77278,CDP,501.0472598
Nekarikallu,16.371,79.943,Andhra Pradesh,Kadapa Airport,14.51,78.77278,CDP,241.9742588
Mutukuru,16.3829,79.4664,Andhra Pradesh,Kadapa Airport,14.51,78.77278,CDP,221.1265939
Pragadavaram,17.0167,81.0167,Andhra Pradesh,Kadapa Airport,14.51,78.77278,CDP,367.888065
Moda,13.8246,77.4421,Andhra Pradesh,Kadapa Airport,14.51,78.77278,CDP,162.4504507
Jaladurgam,15.284,77.9001,Andhra Pradesh,Kadapa Airport,14.51,78.77278,CDP,127.2829446
Komarolu,15.2667,79,Andhra Pradesh,Kadapa Airport,14.51,78.77278,CDP,87.61247301
Chandreru,17.098,81.9959,Andhra Pradesh,Kadapa Airport,14.51,78.77278,CDP,449.1157745
Rajanagaram,17.0833,81.9,Andhra Pradesh,Kadapa Airport,14.51,78.77278,CDP,440.2336824
Dharmavaram,17.23,82.228,Andhra Pradesh,Kadapa Airport,14.51,78.77278,CDP,477.50909
Imani,16.3302,80.658,Andhra Pradesh,Kadapa Airport,14.51,78.77278,CDP,286.0012485
Enumulapalle,14.1446,77.8166,Andhra Pradesh,Kadapa Airport,14.51,78.77278,CDP,110.7383717
Sangam,14.5956,79.7428,Andhra Pradesh,Kadapa Airport,14.51,78.77278,CDP,104.8336405
Kattipudi,17.25,82.3333,Andhra Pradesh,Kadapa Airport,14.51,78.77278,CDP,487.6464186
Hemavati,14.0232,76.995,Andhra Pradesh,Kadapa Airport,14.51,78.77278,CDP,199.0825118
Gudibanda,13.9753,77.1046,Andhra Pradesh,Kadapa Airport,14.51,78.77278,CDP,189.3662896
Chinnamandem,13.9419,78.6814,Andhra Pradesh,Kadapa Airport,14.51,78.77278,CDP,63.93307502
Ghattu,13.6602,78.3331,Andhra Pradesh,Kadapa Airport,14.51,78.77278,CDP,105.7244001
Koppaka,16.7494,81.0311,Andhra Pradesh,Kadapa Airport,14.51,78.77278,CDP,347.0981493
Nagambhotlapalem,15.6804,79.8151,Andhra Pradesh,Kadapa Airport,14.51,78.77278,CDP,171.6346945
Devanakonda,15.5333,77.55,Andhra Pradesh,Kadapa Airport,14.51,78.77278,CDP,173.7576378
Krishnamsettipalle,15.3695,78.884,Andhra Pradesh,Kadapa Airport,14.51,78.77278,CDP,96.31610205
Gudlavalleru,16.35,81.05,Andhra Pradesh,Kadapa Airport,14.51,78.77278,CDP,318.4854022
Vikrutamala,13.6206,79.5642,Andhra Pradesh,Kadapa Airport,14.51,78.77278,CDP,130.6419668
Kopparam,16.0841,79.9874,Andhra Pradesh,Kadapa Airport,14.51,78.77278,CDP,218.1886492
Koduru,13.8692,77.7298,Andhra Pradesh,Kadapa Airport,14.51,78.77278,CDP,133.1116053
Tripurantakam,16.0007,79.4563,Andhra Pradesh,Kadapa Airport,14.51,78.77278,CDP,181.2514883
Matsavaram,16.6,79.7333,Andhra Pradesh,Kadapa Airport,14.51,78.77278,CDP,254.1536278
Nidamanuru,16.5066,80.7222,Andhra Pradesh,Kadapa Airport,14.51,78.77278,CDP,304.8141406
Peravali,15.2861,77.4997,Andhra Pradesh,Kadapa Airport,14.51,78.77278,CDP,161.7456519
Vellaturu,16.1209,79.6508,Andhra Pradesh,Kadapa Airport,14.51,78.77278,CDP,202.3648349
Maruteru,16.6237,81.7394,Andhra Pradesh,Kadapa Airport,14.51,78.77278,CDP,395.2266608
Konkavaripalle,13.7125,78.4861,Andhra Pradesh,Kadapa Airport,14.51,78.77278,CDP,93.91232721
Kamepalle,16.5191,79.835,Andhra Pradesh,Kadapa Airport,14.51,78.77278,CDP,250.7176178
Yadavolu,17.0619,81.4729,Andhra Pradesh,Kadapa Airport,14.51,78.77278,CDP,404.9358092
Lakkireddipalle,14.1667,78.7,Andhra Pradesh,Kadapa Airport,14.51,78.77278,CDP,38.97012468
Srisailain,16.0833,78.8667,Andhra Pradesh,Kadapa Airport,14.51,78.77278,CDP,175.232737
Gaunivaripalle,13.9756,77.8768,Andhra Pradesh,Kadapa Airport,14.51,78.77278,CDP,113.3840759
Somireddipalle,14.8365,78.9062,Andhra Pradesh,Kadapa Airport,14.51,78.77278,CDP,39.03890819
Reddipalle,14.1993,78.0102,Andhra Pradesh,Kadapa Airport,14.51,78.77278,CDP,89.11678493
Apparaopeta,16.8987,81.5684,Andhra Pradesh,Kadapa Airport,14.51,78.77278,CDP,400.1067906
Potunuru,16.7442,81.2206,Andhra Pradesh,Kadapa Airport,14.51,78.77278,CDP,361.1312068
Nagasamudram,15.0556,77.5004,Andhra Pradesh,Kadapa Airport,14.51,78.77278,CDP,149.6475365
Kandulapuram,15.5976,79.1365,Andhra Pradesh,Kadapa Airport,14.51,78.77278,CDP,127.0855058
Kottapalem,16.5787,79.8756,Andhra Pradesh,Kadapa Airport,14.51,78.77278,CDP,258.5906126
Bellamkonda,16.4922,80.0089,Andhra Pradesh,Kadapa Airport,14.51,78.77278,CDP,257.1415464
Roddam,14.1,77.43,Andhra Pradesh,Kadapa Airport,14.51,78.77278,CDP,151.6931744
Vutukuru,14.5778,80.1423,Andhra Pradesh,Kadapa Airport,14.51,78.77278,CDP,147.5962594
Valaparla,15.9167,80.05,Andhra Pradesh,Kadapa Airport,14.51,78.77278,CDP,207.9572779
Kanteru,16.3906,80.5425,Andhra Pradesh,Kadapa Airport,14.51,78.77278,CDP,282.3115335
Kaza,16.3887,80.5412,Andhra Pradesh,Kadapa Airport,14.51,78.77278,CDP,282.0620445
Rompicherla,16.21,79.9087,Andhra Pradesh,Kadapa Airport,14.51,78.77278,CDP,224.8687836
Raparla,16.302,80.9674,Andhra Pradesh,Kadapa Airport,14.51,78.77278,CDP,308.2973582
Potavaram,17.0194,81.4128,Andhra Pradesh,Kadapa Airport,14.51,78.77278,CDP,397.0603908
Vaddadi,17.8474,82.8729,Andhra Pradesh,Kadapa Airport,14.51,78.77278,CDP,573.9000886
Kondakindi Agraharam,14.679,77.7401,Andhra Pradesh,Kadapa Airport,14.51,78.77278,CDP,112.7012339
Korosavada,18.7256,84.0573,Andhra Pradesh,Kadapa Airport,14.51,78.77278,CDP,732.5143191
Jangalapalle,14.8997,79.8936,Andhra Pradesh,Kadapa Airport,14.51,78.77278,CDP,128.0987973
Karapa,16.9,82.1667,Andhra Pradesh,Kadapa Airport,14.51,78.77278,CDP,450.0946683
Rangasamudram,14.9852,78.9765,Andhra Pradesh,Kadapa Airport,14.51,78.77278,CDP,57.20081723
Lepakshi,13.81,77.6,Andhra Pradesh,Kadapa Airport,14.51,78.77278,CDP,148.4808605
Ganapavaram,16.4314,80.0515,Andhra Pradesh,Kadapa Airport,14.51,78.77278,CDP,253.8163686
Munagapaka,17.6333,83,Andhra Pradesh,Kadapa Airport,14.51,78.77278,CDP,569.6958365
Medarametla,15.7167,80.0167,Andhra Pradesh,Kadapa Airport,14.51,78.77278,CDP,189.2995343
Nidamaluru,15.6547,80.0678,Andhra Pradesh,Kadapa Airport,14.51,78.77278,CDP,188.5006881
Kambhaladinne,15.1274,79.5413,Andhra Pradesh,Kadapa Airport,14.51,78.77278,CDP,107.4147497
Erraballa,14.3971,78.1744,Andhra Pradesh,Kadapa Airport,14.51,78.77278,CDP,65.64254699
Gulyam,15.3598,77.067,Andhra Pradesh,Kadapa Airport,14.51,78.77278,CDP,206.1911808
Itikalapalle,14.6013,77.6582,Andhra Pradesh,Kadapa Airport,14.51,78.77278,CDP,120.3864906
Erraguntlakota,13.9622,79.2768,Andhra Pradesh,Kadapa Airport,14.51,78.77278,CDP,81.61705451
Chakicherla,15.1127,80.0366,Andhra Pradesh,Kadapa Airport,14.51,78.77278,CDP,151.4900725
Ammanabrolu,15.5802,80.1488,Andhra Pradesh,Kadapa Airport,14.51,78.77278,CDP,189.7204712
Vedurupavaluru,16.5519,80.7309,Andhra Pradesh,Kadapa Airport,14.51,78.77278,CDP,309.1180161
Angalakuduru Malepalle,16.2392,80.6117,Andhra Pradesh,Kadapa Airport,14.51,78.77278,CDP,275.3897249
Dharmavaram,18.2164,83.8856,Andhra Pradesh,Kadapa Airport,14.51,78.77278,CDP,683.5704154
Pudimadaka,17.5,83.0167,Andhra Pradesh,Kadapa Airport,14.51,78.77278,CDP,562.3478628
Namakadu,14.006,80.1194,Andhra Pradesh,Kadapa Airport,14.51,78.77278,CDP,155.5690968
Chintapalle,17.8667,82.35,Andhra Pradesh,Kadapa Airport,14.51,78.77278,CDP,534.0225296
Reddigudem,16.8939,80.6917,Andhra Pradesh,Kadapa Airport,14.51,78.77278,CDP,335.3389724
Ommangi,17.2597,82.2236,Andhra Pradesh,Kadapa Airport,14.51,78.77278,CDP,479.2235414
Pedda Kotayalanka,16.1567,80.8314,Andhra Pradesh,Kadapa Airport,14.51,78.77278,CDP,286.8061045
Itamukkala,15.3731,80.113,Andhra Pradesh,Kadapa Airport,14.51,78.77278,CDP,173.0387556
Manubolu,14.1833,79.8833,Andhra Pradesh,Kadapa Airport,14.51,78.77278,CDP,125.026874
Padarti,15.469,80.183,Andhra Pradesh,Kadapa Airport,14.51,78.77278,CDP,185.2423946
Nagulapadu,16.0634,80.3395,Andhra Pradesh,Kadapa Airport,14.51,78.77278,CDP,240.9843114
Paravada,17.6283,83.0793,Andhra Pradesh,Kadapa Airport,14.51,78.77278,CDP,576.1042097
Velpuru,16.1775,80.7425,Andhra Pradesh,Kadapa Airport,14.51,78.77278,CDP,281.0474527
Muddanuru,14.6667,78.4,Andhra Pradesh,Kadapa Airport,14.51,78.77278,CDP,43.7356355
Nallamadu,16.8802,81.3549,Andhra Pradesh,Kadapa Airport,14.51,78.77278,CDP,381.9041283
Ganguru,16.475,80.7411,Andhra Pradesh,Kadapa Airport,14.51,78.77278,CDP,303.6786858
Erravaram,17.5458,82.8433,Andhra Pradesh,Kadapa Airport,14.51,78.77278,CDP,550.5790826
Satuluru,16.2541,80.1214,Andhra Pradesh,Kadapa Airport,14.51,78.77278,CDP,241.8975655
Undavalli,16.4957,80.58,Andhra Pradesh,Kadapa Airport,14.51,78.77278,CDP,293.6751352
Rangasamudram,13.714,78.2645,Andhra Pradesh,Kadapa Airport,14.51,78.77278,CDP,104.1084847
Atlapadu,16.8877,81.6772,Andhra Pradesh,Kadapa Airport,14.51,78.77278,CDP,408.1019369
Vanipenta,14.7906,78.7805,Andhra Pradesh,Kadapa Airport,14.51,78.77278,CDP,31.21234775
Punnavalli,16.4062,80.401,Andhra Pradesh,Kadapa Airport,14.51,78.77278,CDP,273.6853011
Santamaguluru,16.1303,79.9486,Andhra Pradesh,Kadapa Airport,14.51,78.77278,CDP,219.9103728
Pulluru,16.8301,80.6226,Andhra Pradesh,Kadapa Airport,14.51,78.77278,CDP,325.2239814
Pondaluru,14.2535,79.2408,Andhra Pradesh,Kadapa Airport,14.51,78.77278,CDP,57.91975203
Velpuru,16.1496,79.863,Andhra Pradesh,Kadapa Airport,14.51,78.77278,CDP,216.5790165
Konidena,16.0156,80.057,Andhra Pradesh,Kadapa Airport,14.51,78.77278,CDP,216.805892
Gandlapenta,14.05,78.3089,Andhra Pradesh,Kadapa Airport,14.51,78.77278,CDP,71.51927057
Kirlampudi,17.1919,82.1825,Andhra Pradesh,Kadapa Airport,14.51,78.77278,CDP,471.0880488
Rellivalasa,17.9108,83.41,Andhra Pradesh,Kadapa Airport,14.51,78.77278,CDP,622.9421598
Pagidyala,15.9333,78.3333,Andhra Pradesh,Kadapa Airport,14.51,78.77278,CDP,165.1385054
Sanampudi,16.086,79.835,Andhra Pradesh,Kadapa Airport,14.51,78.77278,CDP,209.0186929
Ittikelakunta,16.6797,81.7094,Andhra Pradesh,Kadapa Airport,14.51,78.77278,CDP,396.3717822
Nandamuru,16.8458,81.6466,Andhra Pradesh,Kadapa Airport,14.51,78.77278,CDP,402.6159791
Ramasingavaram,16.8863,81.1083,Andhra Pradesh,Kadapa Airport,14.51,78.77278,CDP,363.7482397
Kaikaram,16.812,81.366,Andhra Pradesh,Kadapa Airport,14.51,78.77278,CDP,377.6183966
Trovagunta,15.5509,80.0589,Andhra Pradesh,Kadapa Airport,14.51,78.77278,CDP,180.200206
Muddada,18.2385,83.8687,Andhra Pradesh,Kadapa Airport,14.51,78.77278,CDP,683.5950688
Nadimpalem,16.2123,80.3097,Andhra Pradesh,Kadapa Airport,14.51,78.77278,CDP,250.9653267
Durgi,16.4286,79.5406,Andhra Pradesh,Kadapa Airport,14.51,78.77278,CDP,228.6555223
Molagavalli,15.3567,77.3301,Andhra Pradesh,Kadapa Airport,14.51,78.77278,CDP,181.3521585
Kommuru,16.0667,80.3667,Andhra Pradesh,Kadapa Airport,14.51,78.77278,CDP,243.2875885
Kankanalapalle,15.9923,79.4848,Andhra Pradesh,Kadapa Airport,14.51,78.77278,CDP,181.6624595
Elurupadu,16.5167,81.35,Andhra Pradesh,Kadapa Airport,14.51,78.77278,CDP,355.0046361
Devarapalle,17.9886,82.9811,Andhra Pradesh,Kadapa Airport,14.51,78.77278,CDP,592.7544651
Uppalaguptam,16.5667,82.1,Andhra Pradesh,Kadapa Airport,14.51,78.77278,CDP,423.4820998
Kadimetla,15.7376,77.5385,Andhra Pradesh,Kadapa Airport,14.51,78.77278,CDP,190.2270371
Rangapuram,15.4092,78.0746,Andhra Pradesh,Kadapa Airport,14.51,78.77278,CDP,124.9903473
Muppalla,16.3198,80.0927,Andhra Pradesh,Kadapa Airport,14.51,78.77278,CDP,245.9973362
Asudapuram,15.878,78.132,Andhra Pradesh,Kadapa Airport,14.51,78.77278,CDP,166.9330452
Bhogapuram,18.0311,83.4967,Andhra Pradesh,Kadapa Airport,14.51,78.77278,CDP,638.3095038
Nulivedu,14.1002,78.5548,Andhra Pradesh,Kadapa Airport,14.51,78.77278,CDP,51.26438605
Boddikurapadu,15.6591,79.7509,Andhra Pradesh,Kadapa Airport,14.51,78.77278,CDP,165.3897339
Nagayalanka,15.95,80.9167,Andhra Pradesh,Kadapa Airport,14.51,78.77278,CDP,280.2574017
Timmapuram,15.4887,78.5744,Andhra Pradesh,Kadapa Airport,14.51,78.77278,CDP,110.8926878
Satravada,13.3201,79.5488,Andhra Pradesh,Kadapa Airport,14.51,78.77278,CDP,156.5922078
Draksharama,16.7928,82.0635,Andhra Pradesh,Kadapa Airport,14.51,78.77278,CDP,434.2302615
Uppalapadu,16.3862,79.9983,Andhra Pradesh,Kadapa Airport,14.51,78.77278,CDP,246.524648
Rajapudi,17.183,82.05,Andhra Pradesh,Kadapa Airport,14.51,78.77278,CDP,459.5707529
Oppicherla,16.4444,79.6967,Andhra Pradesh,Kadapa Airport,14.51,78.77278,CDP,236.7864436
Pedda Tumbalam,15.6328,77.1036,Andhra Pradesh,Kadapa Airport,14.51,78.77278,CDP,218.4166951
Gandikunta,16.1693,80.9443,Andhra Pradesh,Kadapa Airport,14.51,78.77278,CDP,297.0874713
Bendapudi,17.2673,82.3758,Andhra Pradesh,Kadapa Airport,14.51,78.77278,CDP,492.3852104
Katteragandla,15.0091,78.9584,Andhra Pradesh,Kadapa Airport,14.51,78.77278,CDP,58.97725705
Sitanagaram,16.2396,80.5855,Andhra Pradesh,Kadapa Airport,14.51,78.77278,CDP,273.4170254
Nutakki,16.4139,80.6506,Andhra Pradesh,Kadapa Airport,14.51,78.77278,CDP,292.0857608
Kondrukota,17.3477,81.6041,Andhra Pradesh,Kadapa Airport,14.51,78.77278,CDP,437.2538565
Gudimulakhandrika,16.382,81.7335,Andhra Pradesh,Kadapa Airport,14.51,78.77278,CDP,379.4900606
Vallahbhapuram,16.3528,80.7175,Andhra Pradesh,Kadapa Airport,14.51,78.77278,CDP,292.2901378
Chikkala,16.9698,81.5922,Andhra Pradesh,Kadapa Airport,14.51,78.77278,CDP,407.2418482
Morubagalu,13.9702,77.0411,Andhra Pradesh,Kadapa Airport,14.51,78.77278,CDP,196.0506402
Chinnayagudem,17.047,81.481,Andhra Pradesh,Kadapa Airport,14.51,78.77278,CDP,404.4048879
Konduru,16.678,80.573,Andhra Pradesh,Kadapa Airport,14.51,78.77278,CDP,308.6808853
Mangasamudram,13.2291,79.0909,Andhra Pradesh,Kadapa Airport,14.51,78.77278,CDP,146.5110897
Govindapalle,15.3525,78.5224,Andhra Pradesh,Kadapa Airport,14.51,78.77278,CDP,97.46748773
Chitrada,17.0802,82.2469,Andhra Pradesh,Kadapa Airport,14.51,78.77278,CDP,468.8499377
Tettu,13.6275,78.4322,Andhra Pradesh,Kadapa Airport,14.51,78.77278,CDP,104.779858
Govindapuram,16.1548,80.1027,Andhra Pradesh,Kadapa Airport,14.51,78.77278,CDP,231.9220474
Kottapalem,17.436,82.495,Andhra Pradesh,Kadapa Airport,14.51,78.77278,CDP,513.94922
Davuluru,16.2625,80.7436,Andhra Pradesh,Kadapa Airport,14.51,78.77278,CDP,287.4251229
Kanasanapalle,16.5227,80.7772,Andhra Pradesh,Kadapa Airport,14.51,78.77278,CDP,310.1649104
Viravada,17.1194,82.211,Andhra Pradesh,Kadapa Airport,14.51,78.77278,CDP,468.469251
Venkatadripalem,16.0506,79.217,Andhra Pradesh,Kadapa Airport,14.51,78.77278,CDP,177.8097171
Uppugunduru,15.673,80.167,Andhra Pradesh,Kadapa Airport,14.51,78.77278,CDP,197.8072082
Kurichedu,15.9,79.5833,Andhra Pradesh,Kadapa Airport,14.51,78.77278,CDP,177.348622
Madhavaram,16.89,81.5937,Andhra Pradesh,Kadapa Airport,14.51,78.77278,CDP,401.5026511
Jangalapalli,14.4818,79.8906,Andhra Pradesh,Kadapa Airport,14.51,78.77278,CDP,120.3797473
Kalicherla,13.8833,78.5333,Andhra Pradesh,Kadapa Airport,14.51,78.77278,CDP,74.31394061
Hirehaluhosahalli,15.0105,76.836,Andhra Pradesh,Kadapa Airport,14.51,78.77278,CDP,215.5599729
Panasapadu,17.0185,82.2349,Andhra Pradesh,Kadapa Airport,14.51,78.77278,CDP,463.7200966
Settivaripalle,14.7543,78.7649,Andhra Pradesh,Kadapa Airport,14.51,78.77278,CDP,27.17814693
Peddannavaripalle,14.2535,78.3384,Andhra Pradesh,Kadapa Airport,14.51,78.77278,CDP,54.79520444
Gudluru,15.0667,79.9,Andhra Pradesh,Kadapa Airport,14.51,78.77278,CDP,136.0828795
Telaprolu,16.586,80.89,Andhra Pradesh,Kadapa Airport,14.51,78.77278,CDP,323.6084222
Kattamuru,17.08,82.13,Andhra Pradesh,Kadapa Airport,14.51,78.77278,CDP,458.985433
Hosuru,15.3797,77.4598,Andhra Pradesh,Kadapa Airport,14.51,78.77278,CDP,171.0234425
Ponnada,18.2536,83.9012,Andhra Pradesh,Kadapa Airport,14.51,78.77278,CDP,687.3521093
Yekambarakuppam,13.3168,79.5678,Andhra Pradesh,Kadapa Airport,14.51,78.77278,CDP,158.0068694
Unagatla,16.9611,81.661,Andhra Pradesh,Kadapa Airport,14.51,78.77278,CDP,412.0908682
Gazulapalle,15.4036,78.6176,Andhra Pradesh,Kadapa Airport,14.51,78.77278,CDP,100.7524949
Bayyavaram,17.6638,82.942,Andhra Pradesh,Kadapa Airport,14.51,78.77278,CDP,566.8607153
Chitvel,14.1667,79.3333,Andhra Pradesh,Kadapa Airport,14.51,78.77278,CDP,71.43940916
Kotabommali,18.5333,84.1667,Andhra Pradesh,Kadapa Airport,14.51,78.77278,CDP,728.415412
Guttikonda,16.43,79.834,Andhra Pradesh,Kadapa Airport,14.51,78.77278,CDP,241.8928153
Kovvali,16.7333,81.1667,Andhra Pradesh,Kadapa Airport,14.51,78.77278,CDP,356.1271766
Channubanda,17.0331,80.8056,Andhra Pradesh,Kadapa Airport,14.51,78.77278,CDP,354.9942267
Lakhanapuram,18.7504,83.5534,Andhra Pradesh,Kadapa Airport,14.51,78.77278,CDP,693.9690901
Polakala,13.3458,78.8167,Andhra Pradesh,Kadapa Airport,14.51,78.77278,CDP,129.5398835
Agadallanka,16.7123,81.2732,Andhra Pradesh,Kadapa Airport,14.51,78.77278,CDP,362.8518673
Gangapatnam,14.5237,80.1521,Andhra Pradesh,Kadapa Airport,14.51,78.77278,CDP,148.4843711
Pullalacheruvu,16.1589,79.3986,Andhra Pradesh,Kadapa Airport,14.51,78.77278,CDP,195.2445048
Kadiyadda,16.8774,81.5149,Andhra Pradesh,Kadapa Airport,14.51,78.77278,CDP,394.2690451
Duvvuru,14.5507,79.8331,Andhra Pradesh,Kadapa Airport,14.51,78.77278,CDP,114.2206748
Vinjam,13.2544,79.263,Andhra Pradesh,Kadapa Airport,14.51,78.77278,CDP,149.3080205
Hamsavaram,17.2938,82.4942,Andhra Pradesh,Kadapa Airport,14.51,78.77278,CDP,504.1360138
Jonnagiri,15.2303,77.5714,Andhra Pradesh,Kadapa Airport,14.51,78.77278,CDP,151.9374656
Kodavatipudi,17.4887,82.6046,Andhra Pradesh,Kadapa Airport,14.51,78.77278,CDP,526.6913985
Valasa,14.1632,76.9469,Andhra Pradesh,Kadapa Airport,14.51,78.77278,CDP,200.4492421
Adigoppula,16.4402,79.6235,Andhra Pradesh,Kadapa Airport,14.51,78.77278,CDP,233.1859576
Penugolanu,16.9771,80.4369,Andhra Pradesh,Kadapa Airport,14.51,78.77278,CDP,327.0623502
Gudivada,17.3974,82.7908,Andhra Pradesh,Kadapa Airport,14.51,78.77278,CDP,536.2487523
Sriramapuram,16.18,80.29,Andhra Pradesh,Kadapa Airport,14.51,78.77278,CDP,246.8792202
Idupugallu,16.4609,80.7543,Andhra Pradesh,Kadapa Airport,14.51,78.77278,CDP,303.5453597
Vidapanakallu,15.0667,77.1833,Andhra Pradesh,Kadapa Airport,14.51,78.77278,CDP,181.7527191
Zulakallu,16.4442,79.7874,Andhra Pradesh,Kadapa Airport,14.51,78.77278,CDP,240.9920608
Hiramandalam,18.6708,83.9505,Andhra Pradesh,Kadapa Airport,14.51,78.77278,CDP,719.9418589
Pasivedalajimma,16.9952,81.7,Andhra Pradesh,Kadapa Airport,14.51,78.77278,CDP,417.7087248
Teranikallu,15.6392,77.5303,Andhra Pradesh,Kadapa Airport,14.51,78.77278,CDP,183.1974568
Pedda Nindrakolanu,16.7342,81.3941,Andhra Pradesh,Kadapa Airport,14.51,78.77278,CDP,374.1014859
Rudravaram,15.266,78.628,Andhra Pradesh,Kadapa Airport,14.51,78.77278,CDP,85.49098
Malaimarpuram,14.2096,79.3072,Andhra Pradesh,Kadapa Airport,14.51,78.77278,CDP,66.55708453
Pendekallu,15.3753,77.6242,Andhra Pradesh,Kadapa Airport,14.51,78.77278,CDP,156.4744552
Pillutla,16.539,79.9044,Andhra Pradesh,Kadapa Airport,14.51,78.77278,CDP,256.1230648
Virapalle,14.1556,78.8569,Andhra Pradesh,Kadapa Airport,14.51,78.77278,CDP,40.4361174
Angallu,13.6287,78.4857,Andhra Pradesh,Kadapa Airport,14.51,78.77278,CDP,102.7715715
Bommagondanahalli,13.8984,77.0733,Andhra Pradesh,Kadapa Airport,14.51,78.77278,CDP,195.4103958
Koppunur,16.4867,79.3318,Andhra Pradesh,Kadapa Airport,14.51,78.77278,CDP,227.8138864
Kambhampadu,16.9853,80.6534,Andhra Pradesh,Kadapa Airport,14.51,78.77278,CDP,340.9657582
Pyalakurti,15.7286,77.8168,Andhra Pradesh,Kadapa Airport,14.51,78.77278,CDP,169.9744147
Rompicherla,13.7228,79.0542,Andhra Pradesh,Kadapa Airport,14.51,78.77278,CDP,92.64404138
Guntapalli,14.7385,79.04,Andhra Pradesh,Kadapa Airport,14.51,78.77278,CDP,38.36898718
Chintakommadinne,14.4267,78.7618,Andhra Pradesh,Kadapa Airport,14.51,78.77278,CDP,9.337676099
Vanukuru,16.4406,80.7379,Andhra Pradesh,Kadapa Airport,14.51,78.77278,CDP,300.7106191
Kottadindulu,16.3518,81.5915,Andhra Pradesh,Kadapa Airport,14.51,78.77278,CDP,364.9842399
Dirusumarru,16.4722,81.5295,Andhra Pradesh,Kadapa Airport,14.51,78.77278,CDP,367.223951
Tokatippa,16.2836,81.5024,Andhra Pradesh,Kadapa Airport,14.51,78.77278,CDP,352.8664001
Achchampeta,17.0941,82.3099,Andhra Pradesh,Kadapa Airport,14.51,78.77278,CDP,475.1330627
Amudalapalle,15.9301,80.6899,Andhra Pradesh,Kadapa Airport,14.51,78.77278,CDP,259.3129261
Anantasagaram,14.5833,79.4167,Andhra Pradesh,Kadapa Airport,14.51,78.77278,CDP,69.78296511
Bandamurlanka,16.517,81.988,Andhra Pradesh,Kadapa Airport,14.51,78.77278,CDP,410.4398679
Dharmajigudem,16.54,81,Andhra Pradesh,Kadapa Airport,14.51,78.77278,CDP,328.4562819
Miduturu,15.7667,78.3,Andhra Pradesh,Kadapa Airport,14.51,78.77278,CDP,148.667305
Chapalamadugu,16.073,79.3775,Andhra Pradesh,Kadapa Airport,14.51,78.77278,CDP,185.5054823
Tadinada,16.547,81.3219,Andhra Pradesh,Kadapa Airport,14.51,78.77278,CDP,354.7936756
Kolumalapalle,15.4774,78.1293,Andhra Pradesh,Kadapa Airport,14.51,78.77278,CDP,127.8598259
Tsallagundla,16.3522,79.9619,Andhra Pradesh,Kadapa Airport,14.51,78.77278,CDP,241.2559822
Kandanati,15.6997,77.4757,Andhra Pradesh,Kadapa Airport,14.51,78.77278,CDP,192.0643997
Mandalapalle,14.0209,77.7511,Andhra Pradesh,Kadapa Airport,14.51,78.77278,CDP,122.8016253
Repala,15,79.7,Andhra Pradesh,Kadapa Airport,14.51,78.77278,CDP,113.6183058
Pedda Penki,18.5853,83.5069,Andhra Pradesh,Kadapa Airport,14.51,78.77278,CDP,678.10686
Munnelli,14.92,78.9546,Andhra Pradesh,Kadapa Airport,14.51,78.77278,CDP,49.60656813
Itanagar,27.1,93.62,Arunachal Pradesh,Daporijo Airport,27.9855,94.2228,DEP,115.008601
Pasighat,28.07,95.33,Arunachal Pradesh,Daporijo Airport,27.9855,94.2228,DEP,109.0811409
Koloriang,27.9167,93.35,Arunachal Pradesh,Daporijo Airport,27.9855,94.2228,DEP,86.07021257
Tezu,27.92,96.17,Arunachal Pradesh,Daporijo Airport,27.9855,94.2228,DEP,191.3950667
Ziro,27.5664,93.8314,Arunachal Pradesh,Daporijo Airport,27.9855,94.2228,DEP,60.45247128
Khagam,27.32,95.9,Arunachal Pradesh,Daporijo Airport,27.9855,94.2228,DEP,181.0085229
Guwahati,26.1722,91.7458,Assam,Dibrugarh Airport,27.4839,95.0169,DIB,355.8250967
Karaikandi,24.8309,92.6143,Assam,Dibrugarh Airport,27.4839,95.0169,DIB,380.1421566
Dispur,26.1397,91.7925,Assam,Dibrugarh Airport,27.4839,95.0169,DIB,353.1594872
Tinkhang,27.23,95.17,Assam,Dibrugarh Airport,27.4839,95.0169,DIB,32.02626543
Silchar,24.82,92.8,Assam,Dibrugarh Airport,27.4839,95.0169,DIB,369.7118037
Nowgong,26.3504,92.6796,Assam,Dibrugarh Airport,27.4839,95.0169,DIB,263.7885918
Dibrugarh,27.48,95,Assam,Dibrugarh Airport,27.4839,95.0169,DIB,1.722618189
Jorhat,26.75,94.22,Assam,Dibrugarh Airport,27.4839,95.0169,DIB,113.4900006
Bongaigaon,26.4769,90.5583,Assam,Dibrugarh Airport,27.4839,95.0169,DIB,455.7509363
Tezpur,26.63,92.8,Assam,Dibrugarh Airport,27.4839,95.0169,DIB,239.1766942
Tinsukia,27.5,95.367,Assam,Dibrugarh Airport,27.4839,95.0169,DIB,34.57963597
Diphu,25.83,93.43,Assam,Dibrugarh Airport,27.4839,95.0169,DIB,242.2539172
Dhuburi,26.02,90,Assam,Dibrugarh Airport,27.4839,95.0169,DIB,524.0109232
North Lakhimpur,27.2414,94.1056,Assam,Dibrugarh Airport,27.4839,95.0169,DIB,93.94699988
Karimganj,24.87,92.35,Assam,Dibrugarh Airport,27.4839,95.0169,DIB,394.0567903
Goalpara,26.17,90.62,Assam,Dibrugarh Airport,27.4839,95.0169,DIB,460.0682225
Sibsagar,26.98,94.63,Assam,Dibrugarh Airport,27.4839,95.0169,DIB,67.84358825
Barpeta,26.32,91,Assam,Dibrugarh Airport,27.4839,95.0169,DIB,418.7926143
Golaghat,26.52,93.97,Assam,Dibrugarh Airport,27.4839,95.0169,DIB,149.1479045
Bilasipara,26.2328,90.2341,Assam,Dibrugarh Airport,27.4839,95.0169,DIB,494.3851462
Hailakandi,24.6839,92.561,Assam,Dibrugarh Airport,27.4839,95.0169,DIB,396.322337
Hojai,26,92.87,Assam,Dibrugarh Airport,27.4839,95.0169,DIB,269.5747337
Kokrajhar,26.4,90.27,Assam,Dibrugarh Airport,27.4839,95.0169,DIB,485.6949746
Dhekiajuli,26.7037,92.4781,Assam,Dibrugarh Airport,27.4839,95.0169,DIB,265.8672793
Kochugaon,26.5518,90.0762,Assam,Dibrugarh Airport,27.4839,95.0169,DIB,500.238111
Lumding,25.75,93.17,Assam,Dibrugarh Airport,27.4839,95.0169,DIB,266.2266449
Masabdisa,25.9682,93.4372,Assam,Dibrugarh Airport,27.4839,95.0169,DIB,230.2528992
Nalbari,26.445,91.44,Assam,Dibrugarh Airport,27.4839,95.0169,DIB,372.8230221
Digboi,27.3932,95.6184,Assam,Dibrugarh Airport,27.4839,95.0169,DIB,60.21030163
Margherita,27.28,95.68,Assam,Dibrugarh Airport,27.4839,95.0169,DIB,69.28673663
Rangia,26.47,91.63,Assam,Dibrugarh Airport,27.4839,95.0169,DIB,354.039687
Mankachar,25.53,89.87,Assam,Dibrugarh Airport,27.4839,95.0169,DIB,556.2550954
Dum Duma,27.5688,95.5566,Assam,Dibrugarh Airport,27.4839,95.0169,DIB,54.04924515
Mangaldai,26.43,92.03,Assam,Dibrugarh Airport,27.4839,95.0169,DIB,318.3790644
Namrup,27.1939,95.3193,Assam,Dibrugarh Airport,27.4839,95.0169,DIB,43.95482687
Rangapara,26.8377,92.6688,Assam,Dibrugarh Airport,27.4839,95.0169,DIB,243.1588155
Dhing,26.4679,92.4734,Assam,Dibrugarh Airport,27.4839,95.0169,DIB,276.2035123
Gauripur,26.08,89.97,Assam,Dibrugarh Airport,27.4839,95.0169,DIB,524.6949033
Kharupatia,26.5184,92.1472,Assam,Dibrugarh Airport,27.4839,95.0169,DIB,303.8969083
Sonari,27.0246,95.0163,Assam,Dibrugarh Airport,27.4839,95.0169,DIB,51.07186425
Howli,26.4224,90.98,Assam,Dibrugarh Airport,27.4839,95.0169,DIB,417.1442935
North Guwahati,26.19,91.71,Assam,Dibrugarh Airport,27.4839,95.0169,DIB,358.2450851
Mariani,26.67,94.33,Assam,Dibrugarh Airport,27.4839,95.0169,DIB,113.2055847
Nahorkatiya,27.2891,95.3418,Assam,Dibrugarh Airport,27.4839,95.0169,DIB,38.70658091
Sonaimukh,24.7333,92.8903,Assam,Dibrugarh Airport,27.4839,95.0169,DIB,372.313848
Udalguri,26.7537,92.1021,Assam,Dibrugarh Airport,27.4839,95.0169,DIB,299.6783313
Abhayapuri,26.3225,90.6853,Assam,Dibrugarh Airport,27.4839,95.0169,DIB,448.4853809
Biswanath Chariali,26.7278,93.1517,Assam,Dibrugarh Airport,27.4839,95.0169,DIB,202.859534
Soalkuchi,26.17,91.57,Assam,Dibrugarh Airport,27.4839,95.0169,DIB,371.9020597
Goshaingaon,26.4395,89.9631,Assam,Dibrugarh Airport,27.4839,95.0169,DIB,514.1199479
Dergaon,26.7,93.9667,Assam,Dibrugarh Airport,27.4839,95.0169,DIB,135.6685765
Bijni,26.4959,90.703,Assam,Dibrugarh Airport,27.4839,95.0169,DIB,441.3029252
Lakhipur,26.2897,90.2281,Assam,Dibrugarh Airport,27.4839,95.0169,DIB,493.1015408
Sapatgram,26.3373,90.1236,Assam,Dibrugarh Airport,27.4839,95.0169,DIB,501.6192201
Dhemaji,27.4833,94.5833,Assam,Dibrugarh Airport,27.4839,95.0169,DIB,42.77284784
Badarpur,24.8685,92.5961,Assam,Dibrugarh Airport,27.4839,95.0169,DIB,378.0405041
Bihpuriagaon,27.0172,93.9167,Assam,Dibrugarh Airport,27.4839,95.0169,DIB,120.5045663
Lala,24.5542,92.6159,Assam,Dibrugarh Airport,27.4839,95.0169,DIB,404.5531213
Lakhipur,24.8,93.02,Assam,Dibrugarh Airport,27.4839,95.0169,DIB,358.8644169
Gohpur,26.8818,93.6156,Assam,Dibrugarh Airport,27.4839,95.0169,DIB,153.9285532
Bokakhat,26.6402,93.6005,Assam,Dibrugarh Airport,27.4839,95.0169,DIB,168.7344518
Singura,24.7928,92.951,Assam,Dibrugarh Airport,27.4839,95.0169,DIB,363.3964651
Dagiapara,26.4568,91.8294,Assam,Dibrugarh Airport,27.4839,95.0169,DIB,335.8831801
Dhalai,24.5958,92.8466,Assam,Dibrugarh Airport,27.4839,95.0169,DIB,387.4647036
Kokiladanga,26.3688,89.8335,Assam,Dibrugarh Airport,27.4839,95.0169,DIB,528.5818444
Sarpamari,26.3073,89.8666,Assam,Dibrugarh Airport,27.4839,95.0169,DIB,527.1822369
Jamunamukh,26.1015,92.7426,Assam,Dibrugarh Airport,27.4839,95.0169,DIB,273.0968554
Barpathar,26.2871,93.8884,Assam,Dibrugarh Airport,27.4839,95.0169,DIB,173.8822102
Rupahi,26.411,92.74,Assam,Dibrugarh Airport,27.4839,95.0169,DIB,255.2738655
Udarband,24.8698,92.8694,Assam,Dibrugarh Airport,27.4839,95.0169,DIB,361.1113589
Moranha,27.1874,94.9156,Assam,Dibrugarh Airport,27.4839,95.0169,DIB,34.45429252
Amtala,26.1,91.39,Assam,Dibrugarh Airport,27.4839,95.0169,DIB,391.483424
Amingaon,26.23,91.67,Assam,Dibrugarh Airport,27.4839,95.0169,DIB,360.0841539
Supaul,26.126,86.605,Bihar,Lok Nayak Jayaprakash Airport,25.5913,85.088,PAT,163.0201615
Patna,25.594,85.1376,Bihar,Lok Nayak Jayaprakash Airport,25.5913,85.088,PAT,4.983206215
Bihta,25.5619,84.87,Bihar,Lok Nayak Jayaprakash Airport,25.5913,85.088,PAT,22.10817758
Purnea,25.778,87.476,Bihar,Lok Nayak Jayaprakash Airport,25.5913,85.088,PAT,240.1923702
Gaya,24.75,85.01,Bihar,Lok Nayak Jayaprakash Airport,25.5913,85.088,PAT,93.87703612
Mothihari,26.65,84.9167,Bihar,Lok Nayak Jayaprakash Airport,25.5913,85.088,PAT,118.9578111
Bettiah,26.8014,84.5028,Bihar,Lok Nayak Jayaprakash Airport,25.5913,85.088,PAT,146.6781006
Bhagalpur,25.25,87,Bihar,Lok Nayak Jayaprakash Airport,25.5913,85.088,PAT,195.7327381
Sasaram,24.95,84.03,Bihar,Lok Nayak Jayaprakash Airport,25.5913,85.088,PAT,128.0730569
Muzaffarpur,26.1225,85.3906,Bihar,Lok Nayak Jayaprakash Airport,25.5913,85.088,PAT,66.37534365
Bihar,25.197,85.518,Bihar,Lok Nayak Jayaprakash Airport,25.5913,85.088,PAT,61.54687899
Darbhanga,26.17,85.9,Bihar,Lok Nayak Jayaprakash Airport,25.5913,85.088,PAT,103.6324262
Surajgarha,25.25,86.23,Bihar,Lok Nayak Jayaprakash Airport,25.5913,85.088,PAT,120.8053175
Sonpur,25.7,85.18,Bihar,Lok Nayak Jayaprakash Airport,25.5913,85.088,PAT,15.20332519
Arrah,25.5514,84.6603,Bihar,Lok Nayak Jayaprakash Airport,25.5913,85.088,PAT,43.1284746
Samastipur,25.8629,85.7811,Bihar,Lok Nayak Jayaprakash Airport,25.5913,85.088,PAT,75.71326195
Begusarai,25.42,86.13,Bihar,Lok Nayak Jayaprakash Airport,25.5913,85.088,PAT,106.2934841
Ramnagar,27.17,84.32,Bihar,Lok Nayak Jayaprakash Airport,25.5913,85.088,PAT,191.4883308
Masaurhi Buzurg,25.35,85.02,Bihar,Lok Nayak Jayaprakash Airport,25.5913,85.088,PAT,27.68608744
Katihar,25.53,87.58,Bihar,Lok Nayak Jayaprakash Airport,25.5913,85.088,PAT,250.0671666
Dagarua,25.8,87.64,Bihar,Lok Nayak Jayaprakash Airport,25.5913,85.088,PAT,256.7541509
Monghyr,25.381,86.465,Bihar,Lok Nayak Jayaprakash Airport,25.5913,85.088,PAT,140.1791163
Chapra,25.7848,84.7274,Bihar,Lok Nayak Jayaprakash Airport,25.5913,85.088,PAT,42.05486418
Mokameh,25.3898,85.9191,Bihar,Lok Nayak Jayaprakash Airport,25.5913,85.088,PAT,86.37462254
Dinapore,25.6225,85.0417,Bihar,Lok Nayak Jayaprakash Airport,25.5913,85.088,PAT,5.795705139
Nawada,24.88,85.53,Bihar,Lok Nayak Jayaprakash Airport,25.5913,85.088,PAT,90.73105819
Harnaut,25.3694,85.5319,Bihar,Lok Nayak Jayaprakash Airport,25.5913,85.088,PAT,50.93384892
Deo,24.6561,84.4356,Bihar,Lok Nayak Jayaprakash Airport,25.5913,85.088,PAT,122.9941889
Madhubani,26.3519,86.0719,Bihar,Lok Nayak Jayaprakash Airport,25.5913,85.088,PAT,129.7171135
Saharsa,25.88,86.6,Bihar,Lok Nayak Jayaprakash Airport,25.5913,85.088,PAT,154.8135219
Hajipur,25.6925,85.2084,Bihar,Lok Nayak Jayaprakash Airport,25.5913,85.088,PAT,16.50146273
Dehri,24.91,84.18,Bihar,Lok Nayak Jayaprakash Airport,25.5913,85.088,PAT,118.6502728
Durgauti,25.2114,83.5308,Bihar,Lok Nayak Jayaprakash Airport,25.5913,85.088,PAT,162.0158587
Siwan,26.22,84.36,Bihar,Lok Nayak Jayaprakash Airport,25.5913,85.088,PAT,100.9414441
Bagaha,27.0992,84.09,Bihar,Lok Nayak Jayaprakash Airport,25.5913,85.088,PAT,194.9412107
Sitamarhi,26.6,85.48,Bihar,Lok Nayak Jayaprakash Airport,25.5913,85.088,PAT,118.7966851
Jamalpur,25.3,86.5,Bihar,Lok Nayak Jayaprakash Airport,25.5913,85.088,PAT,145.4286447
Buxar,25.5605,83.9805,Bihar,Lok Nayak Jayaprakash Airport,25.5913,85.088,PAT,111.1340465
Aurangabad,24.7,84.35,Bihar,Lok Nayak Jayaprakash Airport,25.5913,85.088,PAT,123.8565727
Luckeesarai,25.1678,86.0944,Bihar,Lok Nayak Jayaprakash Airport,25.5913,85.088,PAT,111.5343961
Jamui,24.9278,86.2239,Bihar,Lok Nayak Jayaprakash Airport,25.5913,85.088,PAT,135.9823787
Piro,25.33,84.42,Bihar,Lok Nayak Jayaprakash Airport,25.5913,85.088,PAT,73.08770992
Araria,26.15,87.52,Bihar,Lok Nayak Jayaprakash Airport,25.5913,85.088,PAT,251.1248897
Gaura,25.4961,85.9709,Bihar,Lok Nayak Jayaprakash Airport,25.5913,85.088,PAT,89.20826428
Madhipura,25.92,86.792,Bihar,Lok Nayak Jayaprakash Airport,25.5913,85.088,PAT,174.5213341
Pakribarawan,24.9516,85.7347,Bihar,Lok Nayak Jayaprakash Airport,25.5913,85.088,PAT,96.3752604
Gopalganj,26.47,84.43,Bihar,Lok Nayak Jayaprakash Airport,25.5913,85.088,PAT,117.7658866
Khagaul,25.579,85.0456,Bihar,Lok Nayak Jayaprakash Airport,25.5913,85.088,PAT,4.466901946
Sheikhpura,25.1403,85.8508,Bihar,Lok Nayak Jayaprakash Airport,25.5913,85.088,PAT,91.59074494
Bhabhua,25.05,83.62,Bihar,Lok Nayak Jayaprakash Airport,25.5913,85.088,PAT,159.3546891
Dumraon,25.5526,84.1515,Bihar,Lok Nayak Jayaprakash Airport,25.5913,85.088,PAT,94.03180891
Khagaria,25.5022,86.4671,Bihar,Lok Nayak Jayaprakash Airport,25.5913,85.088,PAT,138.7101998
Raxaul,26.9833,84.85,Bihar,Lok Nayak Jayaprakash Airport,25.5913,85.088,PAT,156.5912865
Bakhtiyarpur,25.459,85.539,Bihar,Lok Nayak Jayaprakash Airport,25.5913,85.088,PAT,47.58523131
Sultanganj,25.246,86.738,Bihar,Lok Nayak Jayaprakash Airport,25.5913,85.088,PAT,170.0993645
Daudnagar,25.03,84.4,Bihar,Lok Nayak Jayaprakash Airport,25.5913,85.088,PAT,93.15710357
Lakhminia,25.4126,86.3253,Bihar,Lok Nayak Jayaprakash Airport,25.5913,85.088,PAT,125.7562513
Arwal,25.2442,84.6631,Bihar,Lok Nayak Jayaprakash Airport,25.5913,85.088,PAT,57.53813356
Fatwa,25.5096,85.305,Bihar,Lok Nayak Jayaprakash Airport,25.5913,85.088,PAT,23.58909598
Bikramganj,25.2107,84.2551,Bihar,Lok Nayak Jayaprakash Airport,25.5913,85.088,PAT,93.7558079
Forbesganj,26.3,87.265,Bihar,Lok Nayak Jayaprakash Airport,25.5913,85.088,PAT,231.493831
Bar Bigha,25.2186,85.7332,Bihar,Lok Nayak Jayaprakash Airport,25.5913,85.088,PAT,76.92308861
Bhawanipur Rajdham,25.6501,87.1396,Bihar,Lok Nayak Jayaprakash Airport,25.5913,85.088,PAT,205.7990015
Hilsa,25.32,85.28,Bihar,Lok Nayak Jayaprakash Airport,25.5913,85.088,PAT,35.80017077
Naugachhia,25.4,87.1,Bihar,Lok Nayak Jayaprakash Airport,25.5913,85.088,PAT,203.0526641
Bihat,25.4253,86.0208,Bihar,Lok Nayak Jayaprakash Airport,25.5913,85.088,PAT,95.4142559
Majurwa,26.1036,86.9193,Bihar,Lok Nayak Jayaprakash Airport,25.5913,85.088,PAT,191.9067057
Dhaka,26.72,85.33,Bihar,Lok Nayak Jayaprakash Airport,25.5913,85.088,PAT,127.8086508
Barhiya,25.2833,86.0333,Bihar,Lok Nayak Jayaprakash Airport,25.5913,85.088,PAT,100.9115365
Bairagnia,26.7381,85.2736,Bihar,Lok Nayak Jayaprakash Airport,25.5913,85.088,PAT,128.8565494
Kharik,25.3679,87.0026,Bihar,Lok Nayak Jayaprakash Airport,25.5913,85.088,PAT,193.7843363
Karmegh,26.5307,86.4263,Bihar,Lok Nayak Jayaprakash Airport,25.5913,85.088,PAT,169.6501887
Barauli,26.3815,84.5872,Bihar,Lok Nayak Jayaprakash Airport,25.5913,85.088,PAT,101.1239248
Saidpur Dabra,25.3207,87.1793,Bihar,Lok Nayak Jayaprakash Airport,25.5913,85.088,PAT,212.1083391
Rajgir,25.03,85.42,Bihar,Lok Nayak Jayaprakash Airport,25.5913,85.088,PAT,70.77571265
Sagauli,26.7639,84.7434,Bihar,Lok Nayak Jayaprakash Airport,25.5913,85.088,PAT,134.8452678
Dhamdaha,25.7435,87.1835,Bihar,Lok Nayak Jayaprakash Airport,25.5913,85.088,PAT,210.6949823
Buddh Gaya,24.6981,84.9869,Bihar,Lok Nayak Jayaprakash Airport,25.5913,85.088,PAT,99.83928499
Sherghati,24.5617,84.7953,Bihar,Lok Nayak Jayaprakash Airport,25.5913,85.088,PAT,118.2204873
Phulwaria,25.4697,85.9847,Bihar,Lok Nayak Jayaprakash Airport,25.5913,85.088,PAT,90.98269162
Pachrukha,26.7373,84.8861,Bihar,Lok Nayak Jayaprakash Airport,25.5913,85.088,PAT,129.0125634
Lalganj,25.87,85.18,Bihar,Lok Nayak Jayaprakash Airport,25.5913,85.088,PAT,32.33122953
Islampur,25.1407,85.2059,Bihar,Lok Nayak Jayaprakash Airport,25.5913,85.088,PAT,51.48572329
Jogbani,26.3961,87.2597,Bihar,Lok Nayak Jayaprakash Airport,25.5913,85.088,PAT,234.7733709
Partapnagar,25.4145,87.0787,Bihar,Lok Nayak Jayaprakash Airport,25.5913,85.088,PAT,200.7505371
Revelganj,25.78,84.67,Bihar,Lok Nayak Jayaprakash Airport,25.5913,85.088,PAT,46.84816804
Shankarpur Khawas,25.2016,87.1496,Bihar,Lok Nayak Jayaprakash Airport,25.5913,85.088,PAT,211.5686187
Charaut,26.5322,85.7942,Bihar,Lok Nayak Jayaprakash Airport,25.5913,85.088,PAT,126.1821133
Rani,25.5564,85.9021,Bihar,Lok Nayak Jayaprakash Airport,25.5913,85.088,PAT,81.74717554
Jale,26.38,85.72,Bihar,Lok Nayak Jayaprakash Airport,25.5913,85.088,PAT,108.0814763
Bahadurganj,26.2617,87.8244,Bihar,Lok Nayak Jayaprakash Airport,25.5913,85.088,PAT,283.614716
Jagdispur,25.4674,84.4204,Bihar,Lok Nayak Jayaprakash Airport,25.5913,85.088,PAT,68.38790064
Punarakh,25.493,85.8054,Bihar,Lok Nayak Jayaprakash Airport,25.5913,85.088,PAT,72.80020671
Dighwara,25.7443,85.01,Bihar,Lok Nayak Jayaprakash Airport,25.5913,85.088,PAT,18.72289714
Majhaul,25.557,86.128,Bihar,Lok Nayak Jayaprakash Airport,25.5913,85.088,PAT,104.3823355
Kharagpur,25.1245,86.5558,Bihar,Lok Nayak Jayaprakash Airport,25.5913,85.088,PAT,156.3523392
Rafiganj,24.82,84.65,Bihar,Lok Nayak Jayaprakash Airport,25.5913,85.088,PAT,96.42273751
Pandaul,26.2517,86.0747,Bihar,Lok Nayak Jayaprakash Airport,25.5913,85.088,PAT,123.0021404
Bibhutpur,25.6878,85.9992,Bihar,Lok Nayak Jayaprakash Airport,25.5913,85.088,PAT,91.97206164
Dulhanganj,25.382,84.858,Bihar,Lok Nayak Jayaprakash Airport,25.5913,85.088,PAT,32.78110552
Kita Chauhattar,25.677,84.872,Bihar,Lok Nayak Jayaprakash Airport,25.5913,85.088,PAT,23.65819405
Baraidih,25.9798,86.1434,Bihar,Lok Nayak Jayaprakash Airport,25.5913,85.088,PAT,114.1585249
Waris Aliganj,25.01,85.63,Bihar,Lok Nayak Jayaprakash Airport,25.5913,85.088,PAT,84.53855897
Bangaon,25.8673,86.5115,Bihar,Lok Nayak Jayaprakash Airport,25.5913,85.088,PAT,145.8570826
Kasba,25.8564,87.5384,Bihar,Lok Nayak Jayaprakash Airport,25.5913,85.088,PAT,247.2288475
Madhubani,26.5147,84.7645,Bihar,Lok Nayak Jayaprakash Airport,25.5913,85.088,PAT,107.6427392
Siripur,25.997,86.9599,Bihar,Lok Nayak Jayaprakash Airport,25.5913,85.088,PAT,192.7577289
Hisua,24.8336,85.4173,Bihar,Lok Nayak Jayaprakash Airport,25.5913,85.088,PAT,90.53130277
Borne,25.5431,86.6999,Bihar,Lok Nayak Jayaprakash Airport,25.5913,85.088,PAT,161.7721596
Turkauliya,26.6079,84.8296,Bihar,Lok Nayak Jayaprakash Airport,25.5913,85.088,PAT,115.948151
Chand Chaur,25.7276,85.7865,Bihar,Lok Nayak Jayaprakash Airport,25.5913,85.088,PAT,71.63175247
Belhi,26.5769,86.1723,Bihar,Lok Nayak Jayaprakash Airport,25.5913,85.088,PAT,154.0670645
Chamtha,25.5789,85.7734,Bihar,Lok Nayak Jayaprakash Airport,25.5913,85.088,PAT,68.75367662
Makhdumpur,25.072,84.973,Bihar,Lok Nayak Jayaprakash Airport,25.5913,85.088,PAT,58.88885556
Puraini,25.1426,86.9797,Bihar,Lok Nayak Jayaprakash Airport,25.5913,85.088,PAT,196.503455
Sherpur,25.6539,84.9793,Bihar,Lok Nayak Jayaprakash Airport,25.5913,85.088,PAT,12.93156729
Jhanjharpur,26.2647,86.2799,Bihar,Lok Nayak Jayaprakash Airport,25.5913,85.088,PAT,140.7601046
Alamnagar,25.561,86.9014,Bihar,Lok Nayak Jayaprakash Airport,25.5913,85.088,PAT,181.9123404
Singia,25.8424,86.1622,Bihar,Lok Nayak Jayaprakash Airport,25.5913,85.088,PAT,111.177142
Nautan Dube,26.7118,84.503,Bihar,Lok Nayak Jayaprakash Airport,25.5913,85.088,PAT,137.5966898
Nauagarhi,25.3443,86.5358,Bihar,Lok Nayak Jayaprakash Airport,25.5913,85.088,PAT,147.9156813
Sanha,25.402,86.3592,Bihar,Lok Nayak Jayaprakash Airport,25.5913,85.088,PAT,129.3090185
Rusera,25.7544,86.0258,Bihar,Lok Nayak Jayaprakash Airport,25.5913,85.088,PAT,95.71804489
Bairi Chak,24.6951,84.9913,Bihar,Lok Nayak Jayaprakash Airport,25.5913,85.088,PAT,100.1271264
Babura,25.6838,84.7825,Bihar,Lok Nayak Jayaprakash Airport,25.5913,85.088,PAT,32.30670278
Rahimpur,25.4894,86.4774,Bihar,Lok Nayak Jayaprakash Airport,25.5913,85.088,PAT,139.8564274
Jamalpur,25.4112,86.6593,Bihar,Lok Nayak Jayaprakash Airport,25.5913,85.088,PAT,158.964056
Riga,26.6553,85.442,Bihar,Lok Nayak Jayaprakash Airport,25.5913,85.088,PAT,123.4770565
Marhaura,25.97,84.87,Bihar,Lok Nayak Jayaprakash Airport,25.5913,85.088,PAT,47.43056464
Sursand,26.65,85.7167,Bihar,Lok Nayak Jayaprakash Airport,25.5913,85.088,PAT,133.4097558
Maranga,25.7592,87.4665,Bihar,Lok Nayak Jayaprakash Airport,25.5913,85.088,PAT,239.0904642
Marar,25.5392,86.5074,Bihar,Lok Nayak Jayaprakash Airport,25.5913,85.088,PAT,142.4947611
Raghopur,26.1785,86.0892,Bihar,Lok Nayak Jayaprakash Airport,25.5913,85.088,PAT,119.5613232
Colgong,25.2633,87.2326,Bihar,Lok Nayak Jayaprakash Airport,25.5913,85.088,PAT,218.4319773
Pokhram,25.9358,86.1974,Bihar,Lok Nayak Jayaprakash Airport,25.5913,85.088,PAT,117.5152709
Murliganj,25.9,86.98,Bihar,Lok Nayak Jayaprakash Airport,25.5913,85.088,PAT,192.5784181
Nauhata,25.9971,86.4887,Bihar,Lok Nayak Jayaprakash Airport,25.5913,85.088,PAT,147.3119568
Simri Bakhriarpur,25.7216,86.5937,Bihar,Lok Nayak Jayaprakash Airport,25.5913,85.088,PAT,151.6120658
Saho,25.9718,86.1537,Bihar,Lok Nayak Jayaprakash Airport,25.5913,85.088,PAT,114.7862456
Sheohar,26.52,85.3,Bihar,Lok Nayak Jayaprakash Airport,25.5913,85.088,PAT,105.4157836
Dhabauli,25.8346,86.8057,Bihar,Lok Nayak Jayaprakash Airport,25.5913,85.088,PAT,174.1987215
Goriar,25.5513,87.2046,Bihar,Lok Nayak Jayaprakash Airport,25.5913,85.088,PAT,212.346201
Malmal,26.4833,86.05,Bihar,Lok Nayak Jayaprakash Airport,25.5913,85.088,PAT,138.1129547
Amarpur,25.0397,86.9025,Bihar,Lok Nayak Jayaprakash Airport,25.5913,85.088,PAT,192.4218503
Parsa,26.0021,84.5979,Bihar,Lok Nayak Jayaprakash Airport,25.5913,85.088,PAT,67.03717698
Kantai,26.2142,85.2975,Bihar,Lok Nayak Jayaprakash Airport,25.5913,85.088,PAT,72.36375181
Patjirwa,26.8084,84.3847,Bihar,Lok Nayak Jayaprakash Airport,25.5913,85.088,PAT,152.4433528
Nasriganj,25.0514,84.3284,Bihar,Lok Nayak Jayaprakash Airport,25.5913,85.088,PAT,97.12430138
Bihpur,25.3889,86.9337,Bihar,Lok Nayak Jayaprakash Airport,25.5913,85.088,PAT,186.6155061
Nokha,25.1015,84.1228,Bihar,Lok Nayak Jayaprakash Airport,25.5913,85.088,PAT,111.238068
Madhura,26.3388,87.1027,Bihar,Lok Nayak Jayaprakash Airport,25.5913,85.088,PAT,217.8841794
Nainijor,25.6811,84.3456,Bihar,Lok Nayak Jayaprakash Airport,25.5913,85.088,PAT,75.09147798
Maner,25.65,84.88,Bihar,Lok Nayak Jayaprakash Airport,25.5913,85.088,PAT,21.85205676
Areraj,26.5527,84.6726,Bihar,Lok Nayak Jayaprakash Airport,25.5913,85.088,PAT,114.6715797
Thatha,25.4988,86.5908,Bihar,Lok Nayak Jayaprakash Airport,25.5913,85.088,PAT,151.1183677
Dalsingh Sarai,25.668,85.8364,Bihar,Lok Nayak Jayaprakash Airport,25.5913,85.088,PAT,75.51339572
Silao,25.0836,85.428,Bihar,Lok Nayak Jayaprakash Airport,25.5913,85.088,PAT,65.98903286
Manihari,25.35,87.63,Bihar,Lok Nayak Jayaprakash Airport,25.5913,85.088,PAT,256.5873487
Ghataro Chaturbhuj,25.8146,85.1862,Bihar,Lok Nayak Jayaprakash Airport,25.5913,85.088,PAT,26.70813605
Ahmadabad,25.3019,87.7938,Bihar,Lok Nayak Jayaprakash Airport,25.5913,85.088,PAT,273.5765923
Koelwar,25.5805,84.7975,Bihar,Lok Nayak Jayaprakash Airport,25.5913,85.088,PAT,29.1592758
Rasiari,26.0464,86.3471,Bihar,Lok Nayak Jayaprakash Airport,25.5913,85.088,PAT,135.8088073
Mirganj,26.3638,84.364,Bihar,Lok Nayak Jayaprakash Airport,25.5913,85.088,PAT,112.3207173
Sograha,25.4798,85.9992,Bihar,Lok Nayak Jayaprakash Airport,25.5913,85.088,PAT,92.26024618
Jirwa,26.0064,86.8604,Bihar,Lok Nayak Jayaprakash Airport,25.5913,85.088,PAT,183.3414597
Baruni,25.4751,85.9681,Bihar,Lok Nayak Jayaprakash Airport,25.5913,85.088,PAT,89.24506805
Rampur,26.2126,87.2491,Bihar,Lok Nayak Jayaprakash Airport,25.5913,85.088,PAT,226.9305516
Masrakh,26.1054,84.8026,Bihar,Lok Nayak Jayaprakash Airport,25.5913,85.088,PAT,63.90254804
Jharka,26.3047,85.6686,Bihar,Lok Nayak Jayaprakash Airport,25.5913,85.088,PAT,98.29850406
Bishunpur Sundar,26.0579,86.9833,Bihar,Lok Nayak Jayaprakash Airport,25.5913,85.088,PAT,196.6654943
Kako,25.2259,85.0642,Bihar,Lok Nayak Jayaprakash Airport,25.5913,85.088,PAT,40.70088465
Chainpura,25.52,86.31,Bihar,Lok Nayak Jayaprakash Airport,25.5913,85.088,PAT,122.8422567
Bathnaha,26.6433,85.5747,Bihar,Lok Nayak Jayaprakash Airport,25.5913,85.088,PAT,126.667969
Nonahi,26.7892,85.6482,Bihar,Lok Nayak Jayaprakash Airport,25.5913,85.088,PAT,144.4525057
Gulam,25.7965,86.7416,Bihar,Lok Nayak Jayaprakash Airport,25.5913,85.088,PAT,167.2537301
Sahibpur Kamal,25.4167,86.3901,Bihar,Lok Nayak Jayaprakash Airport,25.5913,85.088,PAT,132.111914
Nabinagar,24.62,84.12,Bihar,Lok Nayak Jayaprakash Airport,25.5913,85.088,PAT,145.4797676
Barki Ballia,25.4223,86.2758,Bihar,Lok Nayak Jayaprakash Airport,25.5913,85.088,PAT,120.6759819
Simria,25.9663,85.8324,Bihar,Lok Nayak Jayaprakash Airport,25.5913,85.088,PAT,85.40654429
Naubatpur,25.5,84.9611,Bihar,Lok Nayak Jayaprakash Airport,25.5913,85.088,PAT,16.28338629
Simaria,25.4221,86.006,Bihar,Lok Nayak Jayaprakash Airport,25.5913,85.088,PAT,94.02924559
Raghopur,25.5323,85.3809,Bihar,Lok Nayak Jayaprakash Airport,25.5913,85.088,PAT,30.10468242
Sirmatpur,25.3235,87.3836,Bihar,Lok Nayak Jayaprakash Airport,25.5913,85.088,PAT,232.3872909
Basopatti,26.578,86.0052,Bihar,Lok Nayak Jayaprakash Airport,25.5913,85.088,PAT,142.9258013
Mairwa,26.2322,84.1635,Bihar,Lok Nayak Jayaprakash Airport,25.5913,85.088,PAT,116.7402111
Panapur,25.6729,85.0715,Bihar,Lok Nayak Jayaprakash Airport,25.5913,85.088,PAT,9.223056106
Ramdiri,25.3118,86.1023,Bihar,Lok Nayak Jayaprakash Airport,25.5913,85.088,PAT,106.4754629
Sirkhandi Bhitha,26.6244,85.7787,Bihar,Lok Nayak Jayaprakash Airport,25.5913,85.088,PAT,133.9867527
Andhra Tharhi,26.3771,86.3341,Bihar,Lok Nayak Jayaprakash Airport,25.5913,85.088,PAT,152.1440518
Garhara,25.4407,85.9983,Bihar,Lok Nayak Jayaprakash Airport,25.5913,85.088,PAT,92.87021201
Nagarpara,25.4155,86.8832,Bihar,Lok Nayak Jayaprakash Airport,25.5913,85.088,PAT,181.2222903
Baheri,25.9426,86.0471,Bihar,Lok Nayak Jayaprakash Airport,25.5913,85.088,PAT,103.6826333
Maharajgani,26.1075,84.5025,Bihar,Lok Nayak Jayaprakash Airport,25.5913,85.088,PAT,82.02086509
Umga,24.6396,84.5577,Bihar,Lok Nayak Jayaprakash Airport,25.5913,85.088,PAT,118.5298166
Jaisinghpur,26.6318,84.7855,Bihar,Lok Nayak Jayaprakash Airport,25.5913,85.088,PAT,119.5755358
Sangrampur,26.4752,84.6898,Bihar,Lok Nayak Jayaprakash Airport,25.5913,85.088,PAT,106.0320719
Siswa,26.7027,84.9133,Bihar,Lok Nayak Jayaprakash Airport,25.5913,85.088,PAT,124.8061817
Karian,25.8594,86.0104,Bihar,Lok Nayak Jayaprakash Airport,25.5913,85.088,PAT,97.09007244
Kumar Khad,26.5918,86.264,Bihar,Lok Nayak Jayaprakash Airport,25.5913,85.088,PAT,161.765153
Bithar,26.6294,85.7697,Bihar,Lok Nayak Jayaprakash Airport,25.5913,85.088,PAT,134.0043152
Birpur,26.5082,87.0119,Bihar,Lok Nayak Jayaprakash Airport,25.5913,85.088,PAT,217.5589274
Belsand,26.4436,85.4008,Bihar,Lok Nayak Jayaprakash Airport,25.5913,85.088,PAT,99.79275576
Koili Simra,25.4714,87.2175,Bihar,Lok Nayak Jayaprakash Airport,25.5913,85.088,PAT,214.080195
Chanaur,25.851,86.6739,Bihar,Lok Nayak Jayaprakash Airport,25.5913,85.088,PAT,161.4732743
Dighwa,26.2437,84.7532,Bihar,Lok Nayak Jayaprakash Airport,25.5913,85.088,PAT,79.89815225
Tekari,24.9425,84.8427,Bihar,Lok Nayak Jayaprakash Airport,25.5913,85.088,PAT,76.24356251
Mahthi,25.7281,86.0093,Bihar,Lok Nayak Jayaprakash Airport,25.5913,85.088,PAT,93.58535184
Singhara Buzurg,25.7964,85.4539,Bihar,Lok Nayak Jayaprakash Airport,25.5913,85.088,PAT,43.17768668
Koiri Bigha,25.2167,85.0667,Bihar,Lok Nayak Jayaprakash Airport,25.5913,85.088,PAT,41.70852641
Khaira Tola,26.8958,84.1403,Bihar,Lok Nayak Jayaprakash Airport,25.5913,85.088,PAT,173.1282501
Latauna,26.0912,86.8809,Bihar,Lok Nayak Jayaprakash Airport,25.5913,85.088,PAT,187.8371233
Bhiraha,25.7978,86.0736,Bihar,Lok Nayak Jayaprakash Airport,25.5913,85.088,PAT,101.3908517
Bhadas,25.5184,86.4434,Bihar,Lok Nayak Jayaprakash Airport,25.5913,85.088,PAT,136.2105166
Kaler,25.118,84.4955,Bihar,Lok Nayak Jayaprakash Airport,25.5913,85.088,PAT,79.46291062
Muradpur,25.8,86.0055,Bihar,Lok Nayak Jayaprakash Airport,25.5913,85.088,PAT,94.8159345
Dalan,25.603,87.5592,Bihar,Lok Nayak Jayaprakash Airport,25.5913,85.088,PAT,247.8156969
Dip,26.2369,86.3107,Bihar,Lok Nayak Jayaprakash Airport,25.5913,85.088,PAT,141.800173
Sarea Khas,26.635,84.5483,Bihar,Lok Nayak Jayaprakash Airport,25.5913,85.088,PAT,127.9537166
Taulaha,26.9566,84.0731,Bihar,Lok Nayak Jayaprakash Airport,25.5913,85.088,PAT,182.4464505
Chausa,25.5283,87.0322,Bihar,Lok Nayak Jayaprakash Airport,25.5913,85.088,PAT,195.1523292
Simaria,25.5671,87.4929,Bihar,Lok Nayak Jayaprakash Airport,25.5913,85.088,PAT,241.2150881
Bakhri,25.5989,86.2607,Bihar,Lok Nayak Jayaprakash Airport,25.5913,85.088,PAT,117.6048909
Parsagarhi,26.0935,87.0672,Bihar,Lok Nayak Jayaprakash Airport,25.5913,85.088,PAT,205.7870436
Chakia,26.416,85.0467,Bihar,Lok Nayak Jayaprakash Airport,25.5913,85.088,PAT,91.79529273
Rajauli,24.6449,85.5003,Bihar,Lok Nayak Jayaprakash Airport,25.5913,85.088,PAT,113.1256606
Danwan,25.5292,84.4598,Bihar,Lok Nayak Jayaprakash Airport,25.5913,85.088,PAT,63.39345577
Jaynagar,26.5925,86.1372,Bihar,Lok Nayak Jayaprakash Airport,25.5913,85.088,PAT,152.877514
Chatra Gobraura,26.4973,86.2179,Bihar,Lok Nayak Jayaprakash Airport,25.5913,85.088,PAT,151.2966607
Sarai Ranjan,25.7671,85.7245,Bihar,Lok Nayak Jayaprakash Airport,25.5913,85.088,PAT,66.71347857
Qadirganj,24.9138,85.5926,Bihar,Lok Nayak Jayaprakash Airport,25.5913,85.088,PAT,90.83225465
Jaipur Chuhar,25.4187,86.8352,Bihar,Lok Nayak Jayaprakash Airport,25.5913,85.088,PAT,176.3926021
Raja Pakar,25.735,85.3376,Bihar,Lok Nayak Jayaprakash Airport,25.5913,85.088,PAT,29.68402826
Bariarpur,25.686,86.0295,Bihar,Lok Nayak Jayaprakash Airport,25.5913,85.088,PAT,94.96772092
Mohiuddinnagar,25.7428,86.0812,Bihar,Lok Nayak Jayaprakash Airport,25.5913,85.088,PAT,100.9565311
Nirmali,26.314,86.5854,Bihar,Lok Nayak Jayaprakash Airport,25.5913,85.088,PAT,169.9143323
Rupauli,25.8695,87.06,Bihar,Lok Nayak Jayaprakash Airport,25.5913,85.088,PAT,199.9398351
Sarari,26.2523,84.5484,Bihar,Lok Nayak Jayaprakash Airport,25.5913,85.088,PAT,91.18279693
Saurh,25.3789,86.8223,Bihar,Lok Nayak Jayaprakash Airport,25.5913,85.088,PAT,175.6744085
Amodei,26.8975,84.8182,Bihar,Lok Nayak Jayaprakash Airport,25.5913,85.088,PAT,147.7140873
Behat,26.2435,86.2799,Bihar,Lok Nayak Jayaprakash Airport,25.5913,85.088,PAT,139.5295991
Patpara,26.4328,86.1916,Bihar,Lok Nayak Jayaprakash Airport,25.5913,85.088,PAT,144.6289926
Manjhi,25.8384,84.5788,Bihar,Lok Nayak Jayaprakash Airport,25.5913,85.088,PAT,57.94190237
Koath,25.3264,84.2598,Bihar,Lok Nayak Jayaprakash Airport,25.5913,85.088,PAT,88.21192424
Gaura,26.48,85.39,Bihar,Lok Nayak Jayaprakash Airport,25.5913,85.088,PAT,103.3226333
Barhampur,26.3042,86.4729,Bihar,Lok Nayak Jayaprakash Airport,25.5913,85.088,PAT,159.5533818
Supaul,25.9469,86.2497,Bihar,Lok Nayak Jayaprakash Airport,25.5913,85.088,PAT,122.8649055
Hardi,26.0785,86.6809,Bihar,Lok Nayak Jayaprakash Airport,25.5913,85.088,PAT,168.3712819
Bhojpur Kadim,25.5841,84.1265,Bihar,Lok Nayak Jayaprakash Airport,25.5913,85.088,PAT,96.4314796
Ramnagar Farsahi,25.8904,87.1284,Bihar,Lok Nayak Jayaprakash Airport,25.5913,85.088,PAT,207.0541875
Katakos,25.3339,87.6715,Bihar,Lok Nayak Jayaprakash Airport,25.5913,85.088,PAT,260.938268
Birpur,25.5209,85.4614,Bihar,Lok Nayak Jayaprakash Airport,25.5913,85.088,PAT,38.26720796
Shamgarh,25.8935,86.8759,Bihar,Lok Nayak Jayaprakash Airport,25.5913,85.088,PAT,182.1989474
Chandpur,25.5059,87.2488,Bihar,Lok Nayak Jayaprakash Airport,25.5913,85.088,PAT,216.9818158
Sidhapa,26.5355,86.3355,Bihar,Lok Nayak Jayaprakash Airport,25.5913,85.088,PAT,162.9409307
Bhopatpur,26.4495,84.8545,Bihar,Lok Nayak Jayaprakash Airport,25.5913,85.088,PAT,98.23839021
Asarganj,25.15,86.68,Bihar,Lok Nayak Jayaprakash Airport,25.5913,85.088,PAT,167.305675
Bhaluhar,24.82,84.65,Bihar,Lok Nayak Jayaprakash Airport,25.5913,85.088,PAT,96.42273751
Bazidpur Madhaul,25.5236,85.4572,Bihar,Lok Nayak Jayaprakash Airport,25.5913,85.088,PAT,37.79353735
Sanrh Majhgawan,24.6845,85.365,Bihar,Lok Nayak Jayaprakash Airport,25.5913,85.088,PAT,104.6158728
Koskapur,26.0216,87.2279,Bihar,Lok Nayak Jayaprakash Airport,25.5913,85.088,PAT,219.4910083
Chatia,26.5396,84.566,Bihar,Lok Nayak Jayaprakash Airport,25.5913,85.088,PAT,117.6324306
Kochas,25.234,83.9215,Bihar,Lok Nayak Jayaprakash Airport,25.5913,85.088,PAT,123.7108716
Bishunpur,26.0868,86.6541,Bihar,Lok Nayak Jayaprakash Airport,25.5913,85.088,PAT,166.1326085
Beldaur,25.5947,86.7909,Bihar,Lok Nayak Jayaprakash Airport,25.5913,85.088,PAT,170.7746925
Cherakhera,25.6869,86.4187,Bihar,Lok Nayak Jayaprakash Airport,25.5913,85.088,PAT,133.8201683
Lehara,26.1515,86.1034,Bihar,Lok Nayak Jayaprakash Airport,25.5913,85.088,PAT,119.1671637
Sadpur,25.4758,86.3786,Bihar,Lok Nayak Jayaprakash Airport,25.5913,85.088,PAT,130.1269481
Morwa,25.803,85.6861,Bihar,Lok Nayak Jayaprakash Airport,25.5913,85.088,PAT,64.38558577
Huseni,26.3768,84.7952,Bihar,Lok Nayak Jayaprakash Airport,25.5913,85.088,PAT,92.11638867
Pathrajolhania,26.1369,86.6614,Bihar,Lok Nayak Jayaprakash Airport,25.5913,85.088,PAT,168.7125623
Parsahi Sirsia,26.4676,86.4984,Bihar,Lok Nayak Jayaprakash Airport,25.5913,85.088,PAT,171.3263045
Mahinawan,26.0208,86.1672,Bihar,Lok Nayak Jayaprakash Airport,25.5913,85.088,PAT,118.1188637
Sondiha,24.895,87.0175,Bihar,Lok Nayak Jayaprakash Airport,25.5913,85.088,PAT,208.933981
Teghra English,25.4072,87.741,Bihar,Lok Nayak Jayaprakash Airport,25.5913,85.088,PAT,267.0456271
Pahsara,25.5482,86.1667,Bihar,Lok Nayak Jayaprakash Airport,25.5913,85.088,PAT,108.3043072
Rifadpur,25.2635,87.4157,Bihar,Lok Nayak Jayaprakash Airport,25.5913,85.088,PAT,236.5770262
Bholsar,25.2133,87.2147,Bihar,Lok Nayak Jayaprakash Airport,25.5913,85.088,PAT,217.7081121
Pohadi,26.0809,86.2831,Bihar,Lok Nayak Jayaprakash Airport,25.5913,85.088,PAT,131.4122756
Bhojpur Jadid,25.588,84.1621,Bihar,Lok Nayak Jayaprakash Airport,25.5913,85.088,PAT,92.85708371
Kudra,25.0463,83.7926,Bihar,Lok Nayak Jayaprakash Airport,25.5913,85.088,PAT,143.6163445
Sirnia,25.4903,87.5892,Bihar,Lok Nayak Jayaprakash Airport,25.5913,85.088,PAT,251.1897992
Ghosai,25.5562,87.0304,Bihar,Lok Nayak Jayaprakash Airport,25.5913,85.088,PAT,194.8624037
Rangra,25.3803,87.1866,Bihar,Lok Nayak Jayaprakash Airport,25.5913,85.088,PAT,211.9467136
Dumra,26.5671,85.5204,Bihar,Lok Nayak Jayaprakash Airport,25.5913,85.088,PAT,116.7819536
Ghogardiha,26.2799,86.47,Bihar,Lok Nayak Jayaprakash Airport,25.5913,85.088,PAT,157.9871875
Morauna,26.1706,86.4231,Bihar,Lok Nayak Jayaprakash Airport,25.5913,85.088,PAT,148.286709
Shahpur,25.6029,84.4041,Bihar,Lok Nayak Jayaprakash Airport,25.5913,85.088,PAT,68.59466124
Harpur,26.4527,86.071,Bihar,Lok Nayak Jayaprakash Airport,25.5913,85.088,PAT,137.1933875
Mahisi,25.8544,86.465,Bihar,Lok Nayak Jayaprakash Airport,25.5913,85.088,PAT,141.0096575
Simri,25.6405,84.1195,Bihar,Lok Nayak Jayaprakash Airport,25.5913,85.088,PAT,97.26125235
Manjha,26.4061,84.5002,Bihar,Lok Nayak Jayaprakash Airport,25.5913,85.088,PAT,107.9799126
Sarangpur,25.7389,85.6951,Bihar,Lok Nayak Jayaprakash Airport,25.5913,85.088,PAT,63.02087682
Birpur,25.5181,86.0826,Bihar,Lok Nayak Jayaprakash Airport,25.5913,85.088,PAT,100.1066502
Sukhasan,25.4944,87.5263,Bihar,Lok Nayak Jayaprakash Airport,25.5913,85.088,PAT,244.8612058
Siripur,26.7336,84.7217,Bihar,Lok Nayak Jayaprakash Airport,25.5913,85.088,PAT,132.1739556
Sarso,26.2333,86.1768,Bihar,Lok Nayak Jayaprakash Airport,25.5913,85.088,PAT,130.2092644
Ismailpur,25.3113,87.127,Bihar,Lok Nayak Jayaprakash Airport,25.5913,85.088,PAT,207.0745071
Sugaon,26.7317,84.7629,Bihar,Lok Nayak Jayaprakash Airport,25.5913,85.088,PAT,130.8916681
Sabalpur,25.6053,85.1835,Bihar,Lok Nayak Jayaprakash Airport,25.5913,85.088,PAT,9.702499497
Maranchi,25.3544,85.9919,Bihar,Lok Nayak Jayaprakash Airport,25.5913,85.088,PAT,94.48456673
Birnagar,25.9785,87.111,Bihar,Lok Nayak Jayaprakash Airport,25.5913,85.088,PAT,207.0728809
Harihans,26.1457,84.3476,Bihar,Lok Nayak Jayaprakash Airport,25.5913,85.088,PAT,96.37389561
Gunri,25.6408,84.658,Bihar,Lok Nayak Jayaprakash Airport,25.5913,85.088,PAT,43.4641681
Sonhauli,25.5108,86.4707,Bihar,Lok Nayak Jayaprakash Airport,25.5913,85.088,PAT,139.0006255
Lakhna,25.4532,85.1431,Bihar,Lok Nayak Jayaprakash Airport,25.5913,85.088,PAT,16.32105479
Laualagaon,25.494,87.0412,Bihar,Lok Nayak Jayaprakash Airport,25.5913,85.088,PAT,196.2558175
Telwa,25.8796,86.3837,Bihar,Lok Nayak Jayaprakash Airport,25.5913,85.088,PAT,133.684082
Basatpur,26.0011,85.0643,Bihar,Lok Nayak Jayaprakash Airport,25.5913,85.088,PAT,45.62941189
Majhua,26.014,87.3018,Bihar,Lok Nayak Jayaprakash Airport,25.5913,85.088,PAT,226.5464867
Kothia,25.7612,84.8811,Bihar,Lok Nayak Jayaprakash Airport,25.5913,85.088,PAT,28.05045479
Rohar,25.9917,86.2366,Bihar,Lok Nayak Jayaprakash Airport,25.5913,85.088,PAT,123.3128602
Lodhwe,24.6404,85.2913,Bihar,Lok Nayak Jayaprakash Airport,25.5913,85.088,PAT,107.6981459
Tilothu,24.8051,84.0833,Bihar,Lok Nayak Jayaprakash Airport,25.5913,85.088,PAT,133.6438787
Bhawanipur,26.4361,84.7356,Bihar,Lok Nayak Jayaprakash Airport,25.5913,85.088,PAT,100.3210916
Agarpur,25.1957,87.0423,Bihar,Lok Nayak Jayaprakash Airport,25.5913,85.088,PAT,201.1784553
Nari Bhadaun,26.0065,86.2509,Bihar,Lok Nayak Jayaprakash Airport,25.5913,85.088,PAT,125.2394873
